Timestamp,roll,pitch,heading,rollRate,pitchRate,yawRate,groundSpeed,airSpeed,airSpeedSetpoint,climbRate,altitudeRelative,altitudeAMSL,altitudeTuning,altitudeTuningSetpoint,xTrackError,flightDistance,flightTime,distanceToHome,missionItemIndex,headingToNextWP,headingToHome,distanceToGCS,throttlePct,hobbs,apmSubInfo.cameraTilt,apmSubInfo.tetherTurns,apmSubInfo.lights1,apmSubInfo.lights2,apmSubInfo.pilotGain,apmSubInfo.inputHold,apmSubInfo.rollPitchToggle,apmSubInfo.rangefinderDistance,battery0.id,battery0.batteryFunction,battery0.batteryType,battery0.voltage,battery0.current,battery0.mahConsumed,battery0.temperature,battery0.percentRemaining,battery0.timeRemaining,battery0.timeRemainingStr,battery0.chargeState,battery0.instantPower,clock.currentTime,clock.currentDate,distanceSensor.rotationNone,distanceSensor.rotationYaw45,distanceSensor.rotationYaw90,distanceSensor.rotationYaw135,distanceSensor.rotationYaw180,distanceSensor.rotationYaw225,distanceSensor.rotationYaw270,distanceSensor.rotationYaw315,distanceSensor.rotationPitch90,distanceSensor.rotationPitch270,distanceSensor.minDistance,distanceSensor.maxDistance,escStatus.index,escStatus.rpm1,escStatus.rpm2,escStatus.rpm3,escStatus.rpm4,escStatus.current1,escStatus.current2,escStatus.current3,escStatus.current4,escStatus.voltage1,escStatus.voltage2,escStatus.voltage3,escStatus.voltage4,estimatorStatus.goodAttitudeEsimate,estimatorStatus.goodHorizVelEstimate,estimatorStatus.goodVertVelEstimate,estimatorStatus.goodHorizPosRelEstimate,estimatorStatus.goodHorizPosAbsEstimate,estimatorStatus.goodVertPosAbsEstimate,estimatorStatus.goodVertPosAGLEstimate,estimatorStatus.goodConstPosModeEstimate,estimatorStatus.goodPredHorizPosRelEstimate,estimatorStatus.goodPredHorizPosAbsEstimate,estimatorStatus.gpsGlitch,estimatorStatus.accelError,estimatorStatus.velRatio,estimatorStatus.horizPosRatio,estimatorStatus.vertPosRatio,estimatorStatus.magRatio,estimatorStatus.haglRatio,estimatorStatus.tasRatio,estimatorStatus.horizPosAccuracy,estimatorStatus.vertPosAccuracy,gps.lat,gps.lon,gps.mgrs,gps.hdop,gps.vdop,gps.courseOverGround,gps.lock,gps.count,gps2.lat,gps2.lon,gps2.mgrs,gps2.hdop,gps2.vdop,gps2.courseOverGround,gps2.lock,gps2.count,hygrometer.temperature,hygrometer.humidity,hygrometer.hygrometerid,localPosition.x,localPosition.y,localPosition.z,localPosition.vx,localPosition.vy,localPosition.vz,localPositionSetpoint.x,localPositionSetpoint.y,localPositionSetpoint.z,localPositionSetpoint.vx,localPositionSetpoint.vy,localPositionSetpoint.vz,setpoint.roll,setpoint.pitch,setpoint.yaw,setpoint.rollRate,setpoint.pitchRate,setpoint.yawRate,temperature.temperature1,temperature.temperature2,temperature.temperature3,terrain.blocksPending,terrain.blocksLoaded,vibration.xAxis,vibration.yAxis,vibration.zAxis,vibration.clipCount1,vibration.clipCount2,vibration.clipCount3,wind.direction,wind.speed,wind.verticalSpeed
2023-01-16 12:22:23.983,2.8,5.2,264,0.0,0.0,0.0,0.0,0.0,0.000,0.1,-0.1,-0.1,0.050,0.108,0.000,0.0,00:00:00,0.0,0,--.--,--.--,--.--,28,0000:00:00,90,0,50,50,50,0,0,3.61,0,0,0,15.49,0.84,3795,--.--,78,--.--,--:--:--,1,13.01,12:22:23,16/01/23,--.--,--.--,--.--,--.--,--.--,--.--,--.--,--.--,--.--,3.61,--.--,7.00,0,0.000,0.000,0.000,0.000,0.000,0.000,0.000,0.000,0.000,0.000,0.000,0.000,false,false,false,false,false,false,false,false,false,false,false,false,--.--,--.--,--.--,--.--,--.--,--.--,--.--,--.--,22.2341815,68.9617778,42QVK 96061 58748,100.0,100.0,319.8,1,0,--.--,--.--,,--.--,--.--,--.--,0,0,--.--,--.--,0,-14.1,-10.6,0.1,-0.1,-0.0,0.0,--.--,--.--,--.--,--.--,--.--,--.--,--.--,--.--,--.--,--.--,--.--,--.--,62.72,21.08,--.--,0,0,0.1,0.1,0.1,0,1,0,--.--,--.--,--.--
2023-01-16 12:22:24.983,4.1,10.3,264,0.0,0.0,0.0,0.0,0.0,0.000,0.1,-0.0,-0.1,0.090,0.177,0.000,0.0,00:00:00,0.1,0,--.--,--.--,--.--,33,0000:00:00,90,0,50,50,50,0,0,3.66,0,0,0,15.49,0.84,3795,--.--,78,--.--,--:--:--,1,13.02,12:22:24,16/01/23,--.--,--.--,--.--,--.--,--.--,--.--,--.--,--.--,--.--,3.66,--.--,7.00,0,0.000,0.000,0.000,0.000,0.000,0.000,0.000,0.000,0.000,0.000,0.000,0.000,false,false,false,false,false,false,false,false,false,false,false,false,--.--,--.--,--.--,--.--,--.--,--.--,--.--,--.--,22.2341815,68.9617778,42QVK 96061 58748,100.0,100.0,319.8,1,0,--.--,--.--,,--.--,--.--,--.--,0,0,--.--,--.--,0,-14.2,-10.6,0.1,-0.1,-0.1,-0.1,--.--,--.--,--.--,--.--,--.--,--.--,--.--,--.--,--.--,--.--,--.--,--.--,62.72,21.09,--.--,0,0,0.0,0.0,0.1,0,1,0,--.--,--.--,--.--
2023-01-16 12:22:25.983,2.7,6.8,265,0.0,0.0,0.0,0.0,0.0,0.000,-0.1,-0.0,-0.1,0.040,-0.035,0.000,0.0,00:00:01,0.1,0,--.--,--.--,--.--,100,0000:00:00,90,0,50,50,50,0,0,3.75,0,0,0,15.49,0.86,3795,--.--,78,--.--,--:--:--,1,13.33,12:22:25,16/01/23,--.--,--.--,--.--,--.--,--.--,--.--,--.--,--.--,--.--,3.75,--.--,7.00,0,0.000,0.000,0.000,0.000,0.000,0.000,0.000,0.000,0.000,0.000,0.000,0.000,false,false,false,false,false,false,false,false,false,false,false,false,--.--,--.--,--.--,--.--,--.--,--.--,--.--,--.--,22.2341815,68.9617778,42QVK 96061 58748,100.0,100.0,319.8,1,0,--.--,--.--,,--.--,--.--,--.--,0,0,--.--,--.--,0,-14.2,-10.6,0.1,-0.0,0.1,0.1,--.--,--.--,--.--,--.--,--.--,--.--,--.--,--.--,--.--,--.--,--.--,--.--,62.72,21.08,--.--,0,0,0.1,0.1,0.1,0,1,0,--.--,--.--,--.--
2023-01-16 12:22:26.984,3.9,4.9,266,0.0,0.0,0.0,0.0,0.0,0.000,0.2,-0.2,-0.2,-0.030,-0.122,0.000,0.0,00:00:02,0.1,0,--.--,--.--,--.--,48,0000:00:00,90,0,50,50,50,0,0,3.52,0,0,0,15.49,0.86,3795,--.--,78,--.--,--:--:--,1,13.32,12:22:26,16/01/23,--.--,--.--,--.--,--.--,--.--,--.--,--.--,--.--,--.--,3.52,--.--,7.00,0,0.000,0.000,0.000,0.000,0.000,0.000,0.000,0.000,0.000,0.000,0.000,0.000,false,false,false,false,false,false,false,false,false,false,false,false,--.--,--.--,--.--,--.--,--.--,--.--,--.--,--.--,22.2341815,68.9617778,42QVK 96061 58748,100.0,100.0,319.8,1,0,--.--,--.--,,--.--,--.--,--.--,0,0,--.--,--.--,0,-14.2,-10.6,0.2,-0.0,-0.1,0.0,--.--,--.--,--.--,--.--,--.--,--.--,--.--,--.--,--.--,--.--,--.--,--.--,62.72,21.08,--.--,0,0,0.1,0.0,0.1,0,1,0,--.--,--.--,--.--
2023-01-16 12:22:27.984,1.8,8.0,265,0.0,0.0,0.0,0.1,0.0,0.000,-0.1,0.0,-0.0,0.100,0.061,0.000,0.0,00:00:03,0.1,0,--.--,--.--,--.--,50,0000:00:00,90,0,50,50,50,0,0,3.75,0,0,0,15.50,0.84,3796,--.--,78,--.--,--:--:--,1,13.02,12:22:27,16/01/23,--.--,--.--,--.--,--.--,--.--,--.--,--.--,--.--,--.--,3.75,--.--,7.00,0,0.000,0.000,0.000,0.000,0.000,0.000,0.000,0.000,0.000,0.000,0.000,0.000,false,false,false,false,false,false,false,false,false,false,false,false,--.--,--.--,--.--,--.--,--.--,--.--,--.--,--.--,22.2341815,68.9617778,42QVK 96061 58748,100.0,100.0,319.8,1,0,--.--,--.--,,--.--,--.--,--.--,0,0,--.--,--.--,0,-14.2,-10.6,0.0,-0.0,0.1,-0.0,--.--,--.--,--.--,--.--,--.--,--.--,--.--,--.--,--.--,--.--,--.--,--.--,62.72,21.08,--.--,0,0,0.0,0.0,0.0,0,1,0,--.--,--.--,--.--
2023-01-16 12:22:28.983,4.5,3.6,265,0.0,0.0,0.0,0.2,0.0,0.000,-0.0,-0.1,-0.1,0.010,-0.125,0.000,0.0,00:00:04,0.2,0,--.--,--.--,--.--,50,0000:00:00,90,0,50,50,50,0,0,3.55,0,0,0,15.49,0.86,3796,--.--,78,--.--,--:--:--,1,13.33,12:22:28,16/01/23,--.--,--.--,--.--,--.--,--.--,--.--,--.--,--.--,--.--,3.55,--.--,7.00,0,0.000,0.000,0.000,0.000,0.000,0.000,0.000,0.000,0.000,0.000,0.000,0.000,false,false,false,false,false,false,false,false,false,false,false,false,--.--,--.--,--.--,--.--,--.--,--.--,--.--,--.--,22.2341815,68.9617778,42QVK 96061 58748,100.0,100.0,319.8,1,0,--.--,--.--,,--.--,--.--,--.--,0,0,--.--,--.--,0,-14.2,-10.6,0.1,0.1,-0.1,0.0,--.--,--.--,--.--,--.--,--.--,--.--,--.--,--.--,--.--,--.--,--.--,--.--,62.72,21.08,--.--,0,0,0.0,0.1,0.1,0,1,0,--.--,--.--,--.--
2023-01-16 12:22:29.983,1.6,7.0,264,0.0,0.0,0.0,0.1,0.0,0.000,0.1,-0.0,-0.1,0.110,-0.023,0.000,0.0,00:00:05,0.2,0,--.--,--.--,--.--,50,0000:00:00,90,0,50,50,50,0,0,3.55,0,0,0,15.49,0.88,3796,--.--,78,--.--,--:--:--,1,13.64,12:22:29,16/01/23,--.--,--.--,--.--,--.--,--.--,--.--,--.--,--.--,--.--,3.55,--.--,7.00,0,0.000,0.000,0.000,0.000,0.000,0.000,0.000,0.000,0.000,0.000,0.000,0.000,false,false,false,false,false,false,false,false,false,false,false,false,--.--,--.--,--.--,--.--,--.--,--.--,--.--,--.--,22.2341815,68.9617778,42QVK 96061 58748,100.0,100.0,319.8,1,0,--.--,--.--,,--.--,--.--,--.--,0,0,--.--,--.--,0,-14.1,-10.7,0.0,0.1,-0.1,-0.2,--.--,--.--,--.--,--.--,--.--,--.--,--.--,--.--,--.--,--.--,--.--,--.--,62.71,21.09,--.--,0,0,0.0,0.0,0.1,0,1,0,--.--,--.--,--.--
2023-01-16 12:22:30.983,3.4,8.5,263,0.0,0.0,0.0,0.2,0.0,0.000,0.0,0.1,0.0,0.130,0.133,0.000,0.0,00:00:06,0.3,0,--.--,--.--,--.--,75,0000:00:00,90,0,50,50,50,0,0,3.74,0,0,0,15.49,0.84,3796,--.--,78,--.--,--:--:--,1,13.01,12:22:30,16/01/23,--.--,--.--,--.--,--.--,--.--,--.--,--.--,--.--,--.--,3.74,--.--,7.00,0,0.000,0.000,0.000,0.000,0.000,0.000,0.000,0.000,0.000,0.000,0.000,0.000,false,false,false,false,false,false,false,false,false,false,false,false,--.--,--.--,--.--,--.--,--.--,--.--,--.--,--.--,22.2341815,68.9617778,42QVK 96061 58748,100.0,100.0,319.8,1,0,--.--,--.--,,--.--,--.--,--.--,0,0,--.--,--.--,0,-14.0,-10.8,-0.0,0.2,0.1,-0.1,--.--,--.--,--.--,--.--,--.--,--.--,--.--,--.--,--.--,--.--,--.--,--.--,62.72,21.08,--.--,0,0,0.1,0.1,0.1,0,1,0,--.--,--.--,--.--
2023-01-16 12:22:31.982,1.4,4.2,263,0.0,0.0,0.0,0.1,0.0,0.000,-0.2,-0.0,-0.1,-0.020,0.032,0.000,0.0,00:00:07,0.2,0,--.--,--.--,--.--,50,0000:00:00,90,0,50,50,50,0,0,3.74,0,0,0,15.50,0.87,3796,--.--,78,--.--,--:--:--,1,13.48,12:22:31,16/01/23,--.--,--.--,--.--,--.--,--.--,--.--,--.--,--.--,--.--,3.74,--.--,7.00,0,0.000,0.000,0.000,0.000,0.000,0.000,0.000,0.000,0.000,0.000,0.000,0.000,false,false,false,false,false,false,false,false,false,false,false,false,--.--,--.--,--.--,--.--,--.--,--.--,--.--,--.--,22.2341815,68.9617778,42QVK 96061 58748,100.0,100.0,319.8,1,0,--.--,--.--,,--.--,--.--,--.--,0,0,--.--,--.--,0,-13.9,-10.7,0.1,0.1,0.1,0.2,--.--,--.--,--.--,--.--,--.--,--.--,--.--,--.--,--.--,--.--,--.--,--.--,62.72,21.08,--.--,0,0,0.0,0.1,0.0,0,1,0,--.--,--.--,--.--
2023-01-16 12:22:32.982,1.0,2.0,264,0.0,0.0,0.0,0.1,0.0,0.000,-0.0,-0.2,-0.2,-0.090,-0.297,0.000,0.0,00:00:08,0.3,0,--.--,--.--,--.--,50,0000:00:00,90,0,50,50,50,0,0,3.65,0,0,0,15.50,0.87,3797,--.--,78,--.--,--:--:--,1,13.48,12:22:32,16/01/23,--.--,--.--,--.--,--.--,--.--,--.--,--.--,--.--,--.--,3.65,--.--,7.00,0,0.000,0.000,0.000,0.000,0.000,0.000,0.000,0.000,0.000,0.000,0.000,0.000,false,false,false,false,false,false,false,false,false,false,false,false,--.--,--.--,--.--,--.--,--.--,--.--,--.--,--.--,22.2341815,68.9617778,42QVK 96061 58748,100.0,100.0,319.8,1,0,--.--,--.--,,--.--,--.--,--.--,0,0,--.--,--.--,0,-13.8,-10.6,0.2,0.1,-0.0,0.2,--.--,--.--,--.--,--.--,--.--,--.--,--.--,--.--,--.--,--.--,--.--,--.--,62.72,21.08,--.--,0,0,0.0,0.1,0.1,0,1,0,--.--,--.--,--.--
2023-01-16 12:22:33.983,2.2,6.4,264,0.0,0.0,0.0,0.0,0.0,0.000,0.0,-0.1,-0.1,0.040,-0.124,0.000,0.0,00:00:09,0.3,0,--.--,--.--,--.--,50,0000:00:00,90,0,50,50,50,0,0,3.75,0,0,0,15.49,0.86,3797,--.--,78,--.--,--:--:--,1,13.32,12:22:33,16/01/23,--.--,--.--,--.--,--.--,--.--,--.--,--.--,--.--,--.--,3.75,--.--,7.00,0,0.000,0.000,0.000,0.000,0.000,0.000,0.000,0.000,0.000,0.000,0.000,0.000,false,false,false,false,false,false,false,false,false,false,false,false,--.--,--.--,--.--,--.--,--.--,--.--,--.--,--.--,22.2341815,68.9617778,42QVK 96061 58748,100.0,100.0,319.8,1,0,--.--,--.--,,--.--,--.--,--.--,0,0,--.--,--.--,0,-13.8,-10.6,0.1,-0.0,0.0,-0.0,--.--,--.--,--.--,--.--,--.--,--.--,--.--,--.--,--.--,--.--,--.--,--.--,62.72,21.08,--.--,0,0,0.0,0.1,0.0,0,1,0,--.--,--.--,--.--
2023-01-16 12:22:34.982,2.0,6.2,264,0.0,0.0,0.0,0.1,0.0,0.000,-0.1,-0.1,-0.1,0.010,-0.018,0.000,0.0,00:00:10,0.3,0,--.--,--.--,--.--,50,0000:00:00,90,0,50,50,50,0,0,3.64,0,0,0,15.49,0.84,3797,--.--,78,--.--,--:--:--,1,13.02,12:22:34,16/01/23,--.--,--.--,--.--,--.--,--.--,--.--,--.--,--.--,--.--,3.64,--.--,7.00,0,0.000,0.000,0.000,0.000,0.000,0.000,0.000,0.000,0.000,0.000,0.000,0.000,false,false,false,false,false,false,false,false,false,false,false,false,--.--,--.--,--.--,--.--,--.--,--.--,--.--,--.--,22.2341815,68.9617778,42QVK 96061 58748,100.0,100.0,319.8,1,0,--.--,--.--,,--.--,--.--,--.--,0,0,--.--,--.--,0,-13.8,-10.7,0.1,-0.1,-0.1,0.1,--.--,--.--,--.--,--.--,--.--,--.--,--.--,--.--,--.--,--.--,--.--,--.--,62.72,21.09,--.--,0,0,0.1,0.1,0.1,0,1,0,--.--,--.--,--.--
2023-01-16 12:22:35.982,3.1,6.4,263,0.0,0.0,0.0,0.1,0.0,0.000,0.2,-0.1,-0.1,0.030,-0.105,0.000,0.0,00:00:11,0.3,0,--.--,--.--,--.--,50,0000:00:00,90,0,50,50,50,0,0,3.54,0,0,0,15.50,0.84,3797,--.--,78,--.--,--:--:--,1,13.02,12:22:35,16/01/23,--.--,--.--,--.--,--.--,--.--,--.--,--.--,--.--,--.--,3.54,--.--,7.00,0,0.000,0.000,0.000,0.000,0.000,0.000,0.000,0.000,0.000,0.000,0.000,0.000,false,false,false,false,false,false,false,false,false,false,false,false,--.--,--.--,--.--,--.--,--.--,--.--,--.--,--.--,22.2341815,68.9617778,42QVK 96061 58748,100.0,100.0,319.8,1,0,--.--,--.--,,--.--,--.--,--.--,0,0,--.--,--.--,0,-13.8,-10.7,0.1,-0.0,-0.1,-0.2,--.--,--.--,--.--,--.--,--.--,--.--,--.--,--.--,--.--,--.--,--.--,--.--,62.73,21.07,--.--,0,0,0.1,0.1,0.1,0,1,0,--.--,--.--,--.--
2023-01-16 12:22:36.988,1.4,12.3,263,0.0,0.0,0.0,0.1,0.0,0.000,0.0,0.0,-0.0,0.120,0.109,0.000,0.0,00:00:12,0.3,0,--.--,--.--,--.--,50,0000:00:00,90,0,50,50,50,0,0,3.66,0,0,0,15.50,0.86,3798,--.--,78,--.--,--:--:--,1,13.33,12:22:36,16/01/23,--.--,--.--,--.--,--.--,--.--,--.--,--.--,--.--,--.--,3.66,--.--,7.00,0,0.000,0.000,0.000,0.000,0.000,0.000,0.000,0.000,0.000,0.000,0.000,0.000,false,false,false,false,false,false,false,false,false,false,false,false,--.--,--.--,--.--,--.--,--.--,--.--,--.--,--.--,22.2341815,68.9617778,42QVK 96061 58748,100.0,100.0,319.8,1,0,--.--,--.--,,--.--,--.--,--.--,0,0,--.--,--.--,0,-13.9,-10.8,0.0,-0.0,0.1,-0.0,--.--,--.--,--.--,--.--,--.--,--.--,--.--,--.--,--.--,--.--,--.--,--.--,62.73,21.08,--.--,0,0,0.1,0.1,0.1,0,1,0,--.--,--.--,--.--
2023-01-16 12:22:37.982,2.7,9.2,265,0.0,0.0,0.0,0.0,0.0,0.000,-0.1,-0.1,-0.1,0.020,-0.086,0.000,0.0,00:00:13,0.3,0,--.--,--.--,--.--,50,0000:00:00,90,0,50,50,50,0,0,3.68,0,0,0,15.49,0.91,3798,--.--,78,--.--,--:--:--,1,14.10,12:22:37,16/01/23,--.--,--.--,--.--,--.--,--.--,--.--,--.--,--.--,--.--,3.68,--.--,7.00,0,0.000,0.000,0.000,0.000,0.000,0.000,0.000,0.000,0.000,0.000,0.000,0.000,false,false,false,false,false,false,false,false,false,false,false,false,--.--,--.--,--.--,--.--,--.--,--.--,--.--,--.--,22.2341815,68.9617778,42QVK 96061 58748,100.0,100.0,319.8,1,0,--.--,--.--,,--.--,--.--,--.--,0,0,--.--,--.--,0,-13.9,-10.7,0.1,-0.0,-0.0,0.1,--.--,--.--,--.--,--.--,--.--,--.--,--.--,--.--,--.--,--.--,--.--,--.--,62.73,21.08,--.--,0,0,0.0,0.1,0.0,0,1,0,--.--,--.--,--.--
2023-01-16 12:22:38.988,1.3,6.5,267,0.0,0.0,0.0,0.0,0.0,0.000,-0.0,-0.1,-0.2,-0.040,-0.211,0.000,0.0,00:00:14,0.2,0,--.--,--.--,--.--,50,0000:00:00,90,0,50,50,50,0,0,3.66,0,0,0,15.49,0.86,3798,--.--,78,--.--,--:--:--,1,13.32,12:22:38,16/01/23,--.--,--.--,--.--,--.--,--.--,--.--,--.--,--.--,--.--,3.66,--.--,7.00,0,0.000,0.000,0.000,0.000,0.000,0.000,0.000,0.000,0.000,0.000,0.000,0.000,false,false,false,false,false,false,false,false,false,false,false,false,--.--,--.--,--.--,--.--,--.--,--.--,--.--,--.--,22.2341815,68.9617778,42QVK 96061 58748,100.0,100.0,319.8,1,0,--.--,--.--,,--.--,--.--,--.--,0,0,--.--,--.--,0,-13.9,-10.7,0.2,-0.0,-0.0,0.0,--.--,--.--,--.--,--.--,--.--,--.--,--.--,--.--,--.--,--.--,--.--,--.--,62.73,21.08,--.--,0,0,0.1,0.0,0.1,0,1,0,--.--,--.--,--.--
2023-01-16 12:22:39.988,2.5,2.5,267,0.0,0.0,0.0,0.0,0.0,0.000,0.0,-0.1,-0.1,0.000,-0.131,0.000,0.0,00:00:15,0.3,0,--.--,--.--,--.--,50,0000:00:00,90,0,50,50,50,0,0,3.68,0,0,0,15.50,0.82,3798,--.--,78,--.--,--:--:--,1,12.71,12:22:39,16/01/23,--.--,--.--,--.--,--.--,--.--,--.--,--.--,--.--,--.--,3.68,--.--,7.00,0,0.000,0.000,0.000,0.000,0.000,0.000,0.000,0.000,0.000,0.000,0.000,0.000,false,false,false,false,false,false,false,false,false,false,false,false,--.--,--.--,--.--,--.--,--.--,--.--,--.--,--.--,22.2341815,68.9617778,42QVK 96061 58748,100.0,100.0,319.8,1,0,--.--,--.--,,--.--,--.--,--.--,0,0,--.--,--.--,0,-13.9,-10.7,0.1,0.0,-0.0,-0.0,--.--,--.--,--.--,--.--,--.--,--.--,--.--,--.--,--.--,--.--,--.--,--.--,62.73,21.07,--.--,0,0,0.1,0.1,0.0,0,1,0,--.--,--.--,--.--
2023-01-16 12:22:40.982,2.2,6.3,266,0.0,0.0,0.0,0.1,0.0,0.000,0.1,-0.0,-0.1,0.070,0.009,0.000,0.0,00:00:16,0.3,0,--.--,--.--,--.--,50,0000:00:00,90,0,50,50,50,0,0,3.76,0,0,0,15.49,0.86,3799,--.--,78,--.--,--:--:--,1,13.32,12:22:40,16/01/23,--.--,--.--,--.--,--.--,--.--,--.--,--.--,--.--,--.--,3.76,--.--,7.00,0,0.000,0.000,0.000,0.000,0.000,0.000,0.000,0.000,0.000,0.000,0.000,0.000,false,false,false,false,false,false,false,false,false,false,false,false,--.--,--.--,--.--,--.--,--.--,--.--,--.--,--.--,22.2341815,68.9617778,42QVK 96061 58748,100.0,100.0,319.8,1,0,--.--,--.--,,--.--,--.--,--.--,0,0,--.--,--.--,0,-13.9,-10.7,0.1,0.0,0.0,-0.1,--.--,--.--,--.--,--.--,--.--,--.--,--.--,--.--,--.--,--.--,--.--,--.--,62.73,21.08,--.--,0,0,0.0,0.0,0.0,0,1,0,--.--,--.--,--.--
2023-01-16 12:22:41.982,-0.6,10.5,264,0.0,0.0,0.0,0.1,0.0,0.000,-0.1,-0.1,-0.1,0.020,-0.083,0.000,0.0,00:00:17,0.2,0,--.--,--.--,--.--,50,0000:00:00,90,0,50,50,50,0,0,3.63,0,0,0,15.49,0.91,3799,--.--,78,--.--,--:--:--,1,14.10,12:22:41,16/01/23,--.--,--.--,--.--,--.--,--.--,--.--,--.--,--.--,--.--,3.63,--.--,7.00,0,0.000,0.000,0.000,0.000,0.000,0.000,0.000,0.000,0.000,0.000,0.000,0.000,false,false,false,false,false,false,false,false,false,false,false,false,--.--,--.--,--.--,--.--,--.--,--.--,--.--,--.--,22.2341815,68.9617778,42QVK 96061 58748,100.0,100.0,319.8,1,0,--.--,--.--,,--.--,--.--,--.--,0,0,--.--,--.--,0,-13.9,-10.6,0.1,-0.0,0.1,0.1,--.--,--.--,--.--,--.--,--.--,--.--,--.--,--.--,--.--,--.--,--.--,--.--,62.74,21.06,--.--,0,0,0.0,0.1,0.0,0,1,0,--.--,--.--,--.--
2023-01-16 12:22:42.983,4.1,8.4,265,0.0,0.0,0.0,0.1,0.0,0.000,0.1,-0.1,-0.1,-0.020,-0.184,0.000,0.0,00:00:18,0.2,0,--.--,--.--,--.--,50,0000:00:00,90,0,50,50,50,0,0,3.53,0,0,0,15.49,0.84,3799,--.--,78,--.--,--:--:--,1,13.01,12:22:42,16/01/23,--.--,--.--,--.--,--.--,--.--,--.--,--.--,--.--,--.--,3.53,--.--,7.00,0,0.000,0.000,0.000,0.000,0.000,0.000,0.000,0.000,0.000,0.000,0.000,0.000,false,false,false,false,false,false,false,false,false,false,false,false,--.--,--.--,--.--,--.--,--.--,--.--,--.--,--.--,22.2341815,68.9617778,42QVK 96061 58748,100.0,100.0,319.8,1,0,--.--,--.--,,--.--,--.--,--.--,0,0,--.--,--.--,0,-13.9,-10.6,0.2,0.1,-0.0,-0.1,--.--,--.--,--.--,--.--,--.--,--.--,--.--,--.--,--.--,--.--,--.--,--.--,62.73,21.08,--.--,0,0,0.0,0.0,0.0,0,1,0,--.--,--.--,--.--
2023-01-16 12:22:43.982,3.1,10.8,265,0.0,0.0,0.0,0.2,0.0,0.000,0.0,-0.0,-0.1,0.080,0.026,0.000,0.0,00:00:19,0.2,0,--.--,--.--,--.--,50,0000:00:00,90,0,50,50,50,0,0,3.71,0,0,0,15.49,0.89,3799,--.--,78,--.--,--:--:--,1,13.79,12:22:43,16/01/23,--.--,--.--,--.--,--.--,--.--,--.--,--.--,--.--,--.--,3.71,--.--,7.00,0,0.000,0.000,0.000,0.000,0.000,0.000,0.000,0.000,0.000,0.000,0.000,0.000,false,false,false,false,false,false,false,false,false,false,false,false,--.--,--.--,--.--,--.--,--.--,--.--,--.--,--.--,22.2341815,68.9617778,42QVK 96061 58748,100.0,100.0,319.8,1,0,--.--,--.--,,--.--,--.--,--.--,0,0,--.--,--.--,0,-13.9,-10.6,0.1,0.1,0.1,-0.0,--.--,--.--,--.--,--.--,--.--,--.--,--.--,--.--,--.--,--.--,--.--,--.--,62.74,21.07,--.--,0,0,0.0,0.0,0.0,0,1,0,--.--,--.--,--.--
2023-01-16 12:22:44.983,1.6,7.7,267,0.0,0.0,0.0,0.1,0.0,0.000,-0.2,-0.1,-0.1,0.000,-0.114,0.000,0.0,00:00:20,0.2,0,--.--,--.--,--.--,50,0000:00:00,90,0,50,50,50,0,0,3.83,0,0,0,15.49,0.86,3800,--.--,78,--.--,--:--:--,1,13.32,12:22:44,16/01/23,--.--,--.--,--.--,--.--,--.--,--.--,--.--,--.--,--.--,3.83,--.--,7.00,0,0.000,0.000,0.000,0.000,0.000,0.000,0.000,0.000,0.000,0.000,0.000,0.000,false,false,false,false,false,false,false,false,false,false,false,false,--.--,--.--,--.--,--.--,--.--,--.--,--.--,--.--,22.2341815,68.9617778,42QVK 96061 58748,100.0,100.0,319.8,1,0,--.--,--.--,,--.--,--.--,--.--,0,0,--.--,--.--,0,-13.9,-10.5,0.1,-0.0,0.1,0.2,--.--,--.--,--.--,--.--,--.--,--.--,--.--,--.--,--.--,--.--,--.--,--.--,62.74,21.07,--.--,0,0,0.0,0.0,0.0,0,1,0,--.--,--.--,--.--
2023-01-16 12:22:45.983,3.5,6.5,269,0.0,0.0,0.0,0.1,0.0,0.000,0.0,-0.1,-0.2,-0.050,-0.246,0.000,0.0,00:00:21,0.3,0,--.--,--.--,--.--,50,0000:00:00,90,0,50,50,50,0,0,3.76,0,0,0,15.49,0.89,3800,--.--,78,--.--,--:--:--,1,13.79,12:22:45,16/01/23,--.--,--.--,--.--,--.--,--.--,--.--,--.--,--.--,--.--,3.76,--.--,7.00,0,0.000,0.000,0.000,0.000,0.000,0.000,0.000,0.000,0.000,0.000,0.000,0.000,false,false,false,false,false,false,false,false,false,false,false,false,--.--,--.--,--.--,--.--,--.--,--.--,--.--,--.--,22.2341815,68.9617778,42QVK 96061 58748,100.0,100.0,319.8,1,0,--.--,--.--,,--.--,--.--,--.--,0,0,--.--,--.--,0,-13.8,-10.5,0.2,0.0,-0.1,-0.0,--.--,--.--,--.--,--.--,--.--,--.--,--.--,--.--,--.--,--.--,--.--,--.--,62.75,21.07,--.--,0,0,0.0,0.0,0.0,0,1,0,--.--,--.--,--.--
2023-01-16 12:22:46.982,2.1,8.9,269,0.0,0.0,0.0,0.0,0.0,0.000,-0.0,-0.1,-0.1,0.040,-0.040,0.000,0.0,00:00:22,0.3,0,--.--,--.--,--.--,50,0000:00:00,90,0,50,50,50,0,0,3.76,0,0,0,15.49,0.85,3800,--.--,78,--.--,--:--:--,1,13.17,12:22:46,16/01/23,--.--,--.--,--.--,--.--,--.--,--.--,--.--,--.--,--.--,3.76,--.--,7.00,0,0.000,0.000,0.000,0.000,0.000,0.000,0.000,0.000,0.000,0.000,0.000,0.000,false,false,false,false,false,false,false,false,false,false,false,false,--.--,--.--,--.--,--.--,--.--,--.--,--.--,--.--,22.2341815,68.9617778,42QVK 96061 58748,100.0,100.0,319.8,1,0,--.--,--.--,,--.--,--.--,--.--,0,0,--.--,--.--,0,-13.8,-10.5,0.1,0.0,0.0,0.0,--.--,--.--,--.--,--.--,--.--,--.--,--.--,--.--,--.--,--.--,--.--,--.--,62.74,21.07,--.--,0,0,0.0,0.0,0.0,0,1,0,--.--,--.--,--.--
2023-01-16 12:22:47.982,1.8,11.9,269,0.0,0.0,0.0,0.1,0.0,0.000,0.0,-0.0,-0.1,0.070,-0.008,0.000,0.0,00:00:23,0.4,0,--.--,--.--,--.--,50,0000:00:00,90,0,50,50,50,0,0,3.81,0,0,0,15.49,0.84,3800,--.--,78,--.--,--:--:--,1,13.02,12:22:47,16/01/23,--.--,--.--,--.--,--.--,--.--,--.--,--.--,--.--,--.--,3.81,--.--,7.00,0,0.000,0.000,0.000,0.000,0.000,0.000,0.000,0.000,0.000,0.000,0.000,0.000,false,false,false,false,false,false,false,false,false,false,false,false,--.--,--.--,--.--,--.--,--.--,--.--,--.--,--.--,22.2341815,68.9617778,42QVK 96061 58748,100.0,100.0,319.8,1,0,--.--,--.--,,--.--,--.--,--.--,0,0,--.--,--.--,0,-13.7,-10.5,0.1,0.1,0.1,-0.0,--.--,--.--,--.--,--.--,--.--,--.--,--.--,--.--,--.--,--.--,--.--,--.--,62.75,21.07,--.--,0,0,0.0,0.1,0.0,0,1,0,--.--,--.--,--.--
2023-01-16 12:22:48.982,0.8,9.7,270,0.0,0.0,0.0,0.0,0.0,0.000,-0.1,-0.1,-0.1,-0.010,-0.135,0.000,0.0,00:00:24,0.4,0,--.--,--.--,--.--,50,0000:00:00,90,0,50,50,50,0,0,3.81,0,0,0,15.49,0.87,3801,--.--,78,--.--,--:--:--,1,13.48,12:22:48,16/01/23,--.--,--.--,--.--,--.--,--.--,--.--,--.--,--.--,--.--,3.81,--.--,7.00,0,0.000,0.000,0.000,0.000,0.000,0.000,0.000,0.000,0.000,0.000,0.000,0.000,false,false,false,false,false,false,false,false,false,false,false,false,--.--,--.--,--.--,--.--,--.--,--.--,--.--,--.--,22.2341815,68.9617778,42QVK 96061 58748,100.0,100.0,319.8,1,0,--.--,--.--,,--.--,--.--,--.--,0,0,--.--,--.--,0,-13.7,-10.4,0.1,0.0,0.0,0.1,--.--,--.--,--.--,--.--,--.--,--.--,--.--,--.--,--.--,--.--,--.--,--.--,62.74,21.07,--.--,0,0,0.0,0.0,0.0,0,1,0,--.--,--.--,--.--
2023-01-16 12:22:49.982,2.6,5.0,270,0.0,0.0,0.0,0.0,0.0,0.000,0.1,-0.1,-0.2,-0.050,-0.257,0.000,0.0,00:00:25,0.5,0,--.--,--.--,--.--,50,0000:00:00,90,0,50,50,50,0,0,3.66,0,0,0,15.49,0.88,3801,--.--,78,--.--,--:--:--,1,13.64,12:22:49,16/01/23,--.--,--.--,--.--,--.--,--.--,--.--,--.--,--.--,--.--,3.66,--.--,7.00,0,0.000,0.000,0.000,0.000,0.000,0.000,0.000,0.000,0.000,0.000,0.000,0.000,false,false,false,false,false,false,false,false,false,false,false,false,--.--,--.--,--.--,--.--,--.--,--.--,--.--,--.--,22.2341815,68.9617778,42QVK 96061 58748,100.0,100.0,319.8,1,0,--.--,--.--,,--.--,--.--,--.--,0,0,--.--,--.--,0,-13.6,-10.4,0.2,0.0,0.0,-0.1,--.--,--.--,--.--,--.--,--.--,--.--,--.--,--.--,--.--,--.--,--.--,--.--,62.75,21.06,--.--,0,0,0.0,0.1,0.0,0,1,0,--.--,--.--,--.--
2023-01-16 12:22:50.982,1.1,7.6,269,0.0,0.0,0.0,0.2,0.0,0.000,0.1,0.0,-0.0,0.090,0.049,0.000,0.0,00:00:26,0.5,0,--.--,--.--,--.--,50,0000:00:00,90,0,50,50,50,0,0,3.59,0,0,0,15.50,0.83,3801,--.--,78,--.--,--:--:--,1,12.86,12:22:50,16/01/23,--.--,--.--,--.--,--.--,--.--,--.--,--.--,--.--,--.--,3.59,--.--,7.00,0,0.000,0.000,0.000,0.000,0.000,0.000,0.000,0.000,0.000,0.000,0.000,0.000,false,false,false,false,false,false,false,false,false,false,false,false,--.--,--.--,--.--,--.--,--.--,--.--,--.--,--.--,22.2341815,68.9617778,42QVK 96061 58748,100.0,100.0,319.8,1,0,--.--,--.--,,--.--,--.--,--.--,0,0,--.--,--.--,0,-13.7,-10.3,0.0,-0.1,0.2,-0.0,--.--,--.--,--.--,--.--,--.--,--.--,--.--,--.--,--.--,--.--,--.--,--.--,62.75,21.06,--.--,0,0,0.0,0.0,0.0,0,1,0,--.--,--.--,--.--
2023-01-16 12:22:51.982,2.5,8.4,270,0.0,0.0,0.0,0.0,0.0,0.000,-0.2,-0.1,-0.1,0.020,-0.076,0.000,0.0,00:00:27,0.5,0,--.--,--.--,--.--,50,0000:00:00,90,0,50,50,50,0,0,3.63,0,0,0,15.49,0.88,3801,--.--,78,--.--,--:--:--,1,13.63,12:22:51,16/01/23,--.--,--.--,--.--,--.--,--.--,--.--,--.--,--.--,--.--,3.63,--.--,7.00,0,0.000,0.000,0.000,0.000,0.000,0.000,0.000,0.000,0.000,0.000,0.000,0.000,false,false,false,false,false,false,false,false,false,false,false,false,--.--,--.--,--.--,--.--,--.--,--.--,--.--,--.--,22.2341815,68.9617778,42QVK 96061 58748,100.0,100.0,319.8,1,0,--.--,--.--,,--.--,--.--,--.--,0,0,--.--,--.--,0,-13.7,-10.3,0.1,-0.0,0.0,0.2,--.--,--.--,--.--,--.--,--.--,--.--,--.--,--.--,--.--,--.--,--.--,--.--,62.75,21.06,--.--,0,0,0.0,0.1,0.1,0,1,0,--.--,--.--,--.--
2023-01-16 12:22:52.983,1.1,10.8,270,0.0,0.0,0.0,0.2,0.0,0.000,0.1,-0.1,-0.1,0.010,-0.123,0.000,0.0,00:00:28,0.4,0,--.--,--.--,--.--,50,0000:00:00,90,0,50,50,50,0,0,3.54,0,0,0,15.50,0.89,3802,--.--,78,--.--,--:--:--,1,13.79,12:22:52,16/01/23,--.--,--.--,--.--,--.--,--.--,--.--,--.--,--.--,--.--,3.54,--.--,7.00,0,0.000,0.000,0.000,0.000,0.000,0.000,0.000,0.000,0.000,0.000,0.000,0.000,false,false,false,false,false,false,false,false,false,false,false,false,--.--,--.--,--.--,--.--,--.--,--.--,--.--,--.--,22.2341815,68.9617778,42QVK 96061 58748,100.0,100.0,319.8,1,0,--.--,--.--,,--.--,--.--,--.--,0,0,--.--,--.--,0,-13.8,-10.3,0.1,-0.1,0.1,-0.1,--.--,--.--,--.--,--.--,--.--,--.--,--.--,--.--,--.--,--.--,--.--,--.--,62.76,21.05,--.--,0,0,0.1,0.1,0.1,0,1,0,--.--,--.--,--.--
2023-01-16 12:22:53.982,2.6,6.5,269,0.0,0.0,0.0,0.1,0.0,0.000,-0.0,-0.1,-0.1,-0.010,-0.141,0.000,0.0,00:00:29,0.3,0,--.--,--.--,--.--,50,0000:00:00,90,0,50,50,50,0,0,3.67,0,0,0,15.49,0.86,3802,--.--,78,--.--,--:--:--,1,13.33,12:22:53,16/01/23,--.--,--.--,--.--,--.--,--.--,--.--,--.--,--.--,--.--,3.67,--.--,7.00,0,0.000,0.000,0.000,0.000,0.000,0.000,0.000,0.000,0.000,0.000,0.000,0.000,false,false,false,false,false,false,false,false,false,false,false,false,--.--,--.--,--.--,--.--,--.--,--.--,--.--,--.--,22.2341815,68.9617778,42QVK 96061 58748,100.0,100.0,319.8,1,0,--.--,--.--,,--.--,--.--,--.--,0,0,--.--,--.--,0,-13.8,-10.3,0.1,-0.0,-0.1,0.0,--.--,--.--,--.--,--.--,--.--,--.--,--.--,--.--,--.--,--.--,--.--,--.--,62.76,21.05,--.--,0,0,0.0,0.0,0.0,0,1,0,--.--,--.--,--.--
2023-01-16 12:22:54.983,1.1,11.3,268,0.0,0.0,0.0,0.1,0.0,0.000,0.0,-0.1,-0.1,0.020,-0.093,0.000,0.0,00:00:30,0.3,0,--.--,--.--,--.--,50,0000:00:00,90,0,50,50,50,0,0,3.71,0,0,0,15.49,0.86,3802,--.--,78,--.--,--:--:--,1,13.32,12:22:54,16/01/23,--.--,--.--,--.--,--.--,--.--,--.--,--.--,--.--,--.--,3.71,--.--,7.00,0,0.000,0.000,0.000,0.000,0.000,0.000,0.000,0.000,0.000,0.000,0.000,0.000,false,false,false,false,false,false,false,false,false,false,false,false,--.--,--.--,--.--,--.--,--.--,--.--,--.--,--.--,22.2341815,68.9617778,42QVK 96061 58748,100.0,100.0,319.8,1,0,--.--,--.--,,--.--,--.--,--.--,0,0,--.--,--.--,0,-13.9,-10.3,0.1,-0.1,0.1,-0.0,--.--,--.--,--.--,--.--,--.--,--.--,--.--,--.--,--.--,--.--,--.--,--.--,62.76,21.05,--.--,0,0,0.0,0.1,0.1,0,1,0,--.--,--.--,--.--
2023-01-16 12:22:55.983,1.8,8.0,270,0.0,0.0,0.0,0.0,0.0,0.000,0.1,-0.1,-0.1,-0.020,-0.187,0.000,0.0,00:00:31,0.3,0,--.--,--.--,--.--,50,0000:00:00,90,0,50,50,50,0,0,3.49,0,0,0,15.49,0.90,3802,--.--,78,--.--,--:--:--,1,13.95,12:22:55,16/01/23,--.--,--.--,--.--,--.--,--.--,--.--,--.--,--.--,--.--,3.49,--.--,7.00,0,0.000,0.000,0.000,0.000,0.000,0.000,0.000,0.000,0.000,0.000,0.000,0.000,false,false,false,false,false,false,false,false,false,false,false,false,--.--,--.--,--.--,--.--,--.--,--.--,--.--,--.--,22.2341815,68.9617778,42QVK 96061 58748,100.0,100.0,319.8,1,0,--.--,--.--,,--.--,--.--,--.--,0,0,--.--,--.--,0,-13.9,-10.2,0.2,-0.0,-0.0,-0.1,--.--,--.--,--.--,--.--,--.--,--.--,--.--,--.--,--.--,--.--,--.--,--.--,62.75,21.05,--.--,0,0,0.1,0.1,0.0,0,1,0,--.--,--.--,--.--
2023-01-16 12:22:56.982,3.1,9.5,272,0.0,0.0,0.0,0.0,0.0,0.000,0.0,-0.1,-0.1,0.040,-0.053,0.000,0.0,00:00:32,0.4,0,--.--,--.--,--.--,50,0000:00:00,90,0,50,50,50,0,0,3.72,0,0,0,15.49,0.84,3803,--.--,78,--.--,--:--:--,1,13.02,12:22:56,16/01/23,--.--,--.--,--.--,--.--,--.--,--.--,--.--,--.--,--.--,3.72,--.--,7.00,0,0.000,0.000,0.000,0.000,0.000,0.000,0.000,0.000,0.000,0.000,0.000,0.000,false,false,false,false,false,false,false,false,false,false,false,false,--.--,--.--,--.--,--.--,--.--,--.--,--.--,--.--,22.2341815,68.9617778,42QVK 96061 58748,100.0,100.0,319.8,1,0,--.--,--.--,,--.--,--.--,--.--,0,0,--.--,--.--,0,-14.0,-10.2,0.1,0.0,-0.0,-0.0,--.--,--.--,--.--,--.--,--.--,--.--,--.--,--.--,--.--,--.--,--.--,--.--,62.76,21.05,--.--,0,0,0.0,0.0,0.0,0,1,0,--.--,--.--,--.--
2023-01-16 12:22:57.982,3.1,8.4,274,0.0,0.0,0.0,0.1,0.0,0.000,0.1,-0.0,-0.1,0.050,-0.046,0.000,0.0,00:00:33,0.4,0,--.--,--.--,--.--,50,0000:00:00,90,0,50,50,50,0,0,3.58,0,0,0,15.49,0.89,3803,--.--,78,--.--,--:--:--,1,13.79,12:22:57,16/01/23,--.--,--.--,--.--,--.--,--.--,--.--,--.--,--.--,--.--,3.58,--.--,7.00,0,0.000,0.000,0.000,0.000,0.000,0.000,0.000,0.000,0.000,0.000,0.000,0.000,false,false,false,false,false,false,false,false,false,false,false,false,--.--,--.--,--.--,--.--,--.--,--.--,--.--,--.--,22.2341815,68.9617778,42QVK 96061 58748,100.0,100.0,319.8,1,0,--.--,--.--,,--.--,--.--,--.--,0,0,--.--,--.--,0,-14.0,-10.1,0.1,0.0,0.1,-0.1,--.--,--.--,--.--,--.--,--.--,--.--,--.--,--.--,--.--,--.--,--.--,--.--,62.76,21.04,--.--,0,0,0.0,0.0,0.1,0,1,0,--.--,--.--,--.--
2023-01-16 12:22:58.982,3.1,7.4,276,0.0,0.0,0.0,0.1,0.0,0.000,-0.0,-0.0,-0.1,0.050,-0.020,0.000,0.0,00:00:34,0.4,0,--.--,--.--,--.--,50,0000:00:00,90,0,50,50,50,0,0,0.00,0,0,0,15.49,0.88,3803,--.--,78,--.--,--:--:--,1,13.63,12:22:58,16/01/23,--.--,--.--,--.--,--.--,--.--,--.--,--.--,--.--,--.--,0.00,--.--,7.00,0,0.000,0.000,0.000,0.000,0.000,0.000,0.000,0.000,0.000,0.000,0.000,0.000,false,false,false,false,false,false,false,false,false,false,false,false,--.--,--.--,--.--,--.--,--.--,--.--,--.--,--.--,22.2341815,68.9617778,42QVK 96061 58748,100.0,100.0,319.8,1,0,--.--,--.--,,--.--,--.--,--.--,0,0,--.--,--.--,0,-13.9,-10.1,0.1,0.1,0.1,-0.0,--.--,--.--,--.--,--.--,--.--,--.--,--.--,--.--,--.--,--.--,--.--,--.--,62.76,21.05,--.--,0,0,0.0,0.1,0.0,0,1,0,--.--,--.--,--.--
2023-01-16 12:22:59.982,3.4,6.0,278,0.0,0.0,0.0,0.2,0.0,0.000,0.0,-0.1,-0.1,0.040,-0.068,0.000,0.0,00:00:35,0.6,0,--.--,--.--,--.--,50,0000:00:00,90,0,50,50,50,0,0,3.70,0,0,0,15.49,0.86,3803,--.--,78,--.--,--:--:--,1,13.32,12:22:59,16/01/23,--.--,--.--,--.--,--.--,--.--,--.--,--.--,--.--,--.--,3.70,--.--,7.00,0,0.000,0.000,0.000,0.000,0.000,0.000,0.000,0.000,0.000,0.000,0.000,0.000,false,false,false,false,false,false,false,false,false,false,false,false,--.--,--.--,--.--,--.--,--.--,--.--,--.--,--.--,22.2341815,68.9617778,42QVK 96061 58748,100.0,100.0,319.8,1,0,--.--,--.--,,--.--,--.--,--.--,0,0,--.--,--.--,0,-13.8,-10.0,0.1,0.1,0.1,-0.0,--.--,--.--,--.--,--.--,--.--,--.--,--.--,--.--,--.--,--.--,--.--,--.--,62.77,21.04,--.--,0,0,0.0,0.0,0.1,0,1,0,--.--,--.--,--.--
2023-01-16 12:23:00.982,0.5,6.7,277,0.0,0.0,0.0,0.1,0.0,0.000,-0.1,-0.1,-0.1,-0.020,-0.164,0.000,0.0,00:00:36,0.7,0,--.--,--.--,--.--,75,0000:00:00,90,0,50,50,50,0,0,3.75,0,0,0,15.49,0.82,3803,--.--,78,--.--,--:--:--,1,12.70,12:23:00,16/01/23,--.--,--.--,--.--,--.--,--.--,--.--,--.--,--.--,--.--,3.75,--.--,7.00,0,0.000,0.000,0.000,0.000,0.000,0.000,0.000,0.000,0.000,0.000,0.000,0.000,false,false,false,false,false,false,false,false,false,false,false,false,--.--,--.--,--.--,--.--,--.--,--.--,--.--,--.--,22.2341815,68.9617778,42QVK 96061 58748,100.0,100.0,319.8,1,0,--.--,--.--,,--.--,--.--,--.--,0,0,--.--,--.--,0,-13.7,-10.0,0.2,0.0,0.1,0.1,--.--,--.--,--.--,--.--,--.--,--.--,--.--,--.--,--.--,--.--,--.--,--.--,62.76,21.04,--.--,0,0,0.0,0.1,0.1,0,1,0,--.--,--.--,--.--
2023-01-16 12:23:01.982,1.5,9.3,276,0.0,0.0,0.0,0.1,0.0,0.000,-0.0,-0.1,-0.1,0.000,-0.135,0.000,0.0,00:00:37,0.8,0,--.--,--.--,--.--,50,0000:00:00,90,0,50,50,50,0,0,3.67,0,0,0,15.49,0.88,3804,--.--,78,--.--,--:--:--,1,13.63,12:23:01,16/01/23,--.--,--.--,--.--,--.--,--.--,--.--,--.--,--.--,--.--,3.67,--.--,7.00,0,0.000,0.000,0.000,0.000,0.000,0.000,0.000,0.000,0.000,0.000,0.000,0.000,false,false,false,false,false,false,false,false,false,false,false,false,--.--,--.--,--.--,--.--,--.--,--.--,--.--,--.--,22.2341815,68.9617778,42QVK 96061 58748,100.0,100.0,319.8,1,0,--.--,--.--,,--.--,--.--,--.--,0,0,--.--,--.--,0,-13.6,-9.9,0.1,0.0,0.0,0.0,--.--,--.--,--.--,--.--,--.--,--.--,--.--,--.--,--.--,--.--,--.--,--.--,62.76,21.04,--.--,0,0,0.0,0.0,0.1,0,1,0,--.--,--.--,--.--
2023-01-16 12:23:02.983,0.7,6.7,275,0.0,0.0,0.0,0.1,0.0,0.000,-0.0,-0.1,-0.1,-0.020,-0.189,0.000,0.0,00:00:38,0.8,0,--.--,--.--,--.--,50,0000:00:00,90,0,50,50,50,0,0,3.59,0,0,0,15.49,0.90,3804,--.--,78,--.--,--:--:--,1,13.94,12:23:02,16/01/23,--.--,--.--,--.--,--.--,--.--,--.--,--.--,--.--,--.--,3.59,--.--,7.00,0,0.000,0.000,0.000,0.000,0.000,0.000,0.000,0.000,0.000,0.000,0.000,0.000,false,false,false,false,false,false,false,false,false,false,false,false,--.--,--.--,--.--,--.--,--.--,--.--,--.--,--.--,22.2341815,68.9617778,42QVK 96061 58748,100.0,100.0,319.8,1,0,--.--,--.--,,--.--,--.--,--.--,0,0,--.--,--.--,0,-13.6,-9.9,0.2,-0.1,-0.1,0.0,--.--,--.--,--.--,--.--,--.--,--.--,--.--,--.--,--.--,--.--,--.--,--.--,62.77,21.05,--.--,0,0,0.1,0.1,0.0,0,1,0,--.--,--.--,--.--
2023-01-16 12:23:03.982,1.0,10.3,275,0.0,0.0,0.0,0.1,0.0,0.000,-0.1,-0.1,-0.1,0.030,-0.061,0.000,0.0,00:00:39,0.8,0,--.--,--.--,--.--,50,0000:00:00,90,0,50,50,50,0,0,3.77,0,0,0,15.49,0.86,3804,--.--,78,--.--,--:--:--,1,13.32,12:23:03,16/01/23,--.--,--.--,--.--,--.--,--.--,--.--,--.--,--.--,--.--,3.77,--.--,7.00,0,0.000,0.000,0.000,0.000,0.000,0.000,0.000,0.000,0.000,0.000,0.000,0.000,false,false,false,false,false,false,false,false,false,false,false,false,--.--,--.--,--.--,--.--,--.--,--.--,--.--,--.--,22.2341815,68.9617778,42QVK 96061 58748,100.0,100.0,319.8,1,0,--.--,--.--,,--.--,--.--,--.--,0,0,--.--,--.--,0,-13.6,-9.9,0.1,-0.1,0.1,0.1,--.--,--.--,--.--,--.--,--.--,--.--,--.--,--.--,--.--,--.--,--.--,--.--,62.76,21.05,--.--,0,0,0.0,0.0,0.0,0,1,0,--.--,--.--,--.--
2023-01-16 12:23:04.983,3.3,7.7,276,0.0,0.0,0.0,0.0,0.0,0.000,0.0,-0.1,-0.1,0.010,-0.126,0.000,0.0,00:00:40,0.7,0,--.--,--.--,--.--,50,0000:00:00,90,0,50,50,50,0,0,3.59,0,0,0,15.49,0.86,3804,--.--,78,--.--,--:--:--,1,13.32,12:23:04,16/01/23,--.--,--.--,--.--,--.--,--.--,--.--,--.--,--.--,--.--,3.59,--.--,7.00,0,0.000,0.000,0.000,0.000,0.000,0.000,0.000,0.000,0.000,0.000,0.000,0.000,false,false,false,false,false,false,false,false,false,false,false,false,--.--,--.--,--.--,--.--,--.--,--.--,--.--,--.--,22.2341815,68.9617778,42QVK 96061 58748,100.0,100.0,319.8,1,0,--.--,--.--,,--.--,--.--,--.--,0,0,--.--,--.--,0,-13.7,-9.9,0.1,-0.0,0.0,-0.0,--.--,--.--,--.--,--.--,--.--,--.--,--.--,--.--,--.--,--.--,--.--,--.--,62.77,21.05,--.--,0,0,0.0,0.1,0.0,0,1,0,--.--,--.--,--.--
2023-01-16 12:23:05.982,3.1,6.4,276,0.0,0.0,0.0,0.1,0.0,0.000,-0.1,-0.1,-0.1,0.000,-0.124,0.000,0.0,00:00:41,0.7,0,--.--,--.--,--.--,50,0000:00:00,90,0,50,50,50,0,0,3.56,0,0,0,15.49,0.90,3805,--.--,78,--.--,--:--:--,1,13.94,12:23:05,16/01/23,--.--,--.--,--.--,--.--,--.--,--.--,--.--,--.--,--.--,3.56,--.--,7.00,0,0.000,0.000,0.000,0.000,0.000,0.000,0.000,0.000,0.000,0.000,0.000,0.000,false,false,false,false,false,false,false,false,false,false,false,false,--.--,--.--,--.--,--.--,--.--,--.--,--.--,--.--,22.2341815,68.9617778,42QVK 96061 58748,100.0,100.0,319.8,1,0,--.--,--.--,,--.--,--.--,--.--,0,0,--.--,--.--,0,-13.8,-9.9,0.1,-0.0,-0.1,0.1,--.--,--.--,--.--,--.--,--.--,--.--,--.--,--.--,--.--,--.--,--.--,--.--,62.76,21.04,--.--,0,0,0.1,0.1,0.0,0,1,0,--.--,--.--,--.--
2023-01-16 12:23:06.982,2.6,8.7,276,0.0,0.0,0.0,0.1,0.0,0.000,0.1,-0.0,-0.1,0.060,-0.029,0.000,0.0,00:00:42,0.6,0,--.--,--.--,--.--,50,0000:00:00,90,0,50,50,50,0,0,3.57,0,0,0,15.49,0.85,3805,--.--,78,--.--,--:--:--,1,13.17,12:23:06,16/01/23,--.--,--.--,--.--,--.--,--.--,--.--,--.--,--.--,--.--,3.57,--.--,7.00,0,0.000,0.000,0.000,0.000,0.000,0.000,0.000,0.000,0.000,0.000,0.000,0.000,false,false,false,false,false,false,false,false,false,false,false,false,--.--,--.--,--.--,--.--,--.--,--.--,--.--,--.--,22.2341815,68.9617778,42QVK 96061 58748,100.0,100.0,319.8,1,0,--.--,--.--,,--.--,--.--,--.--,0,0,--.--,--.--,0,-13.9,-9.9,0.1,-0.1,0.1,-0.1,--.--,--.--,--.--,--.--,--.--,--.--,--.--,--.--,--.--,--.--,--.--,--.--,62.77,21.04,--.--,0,0,0.0,0.0,0.1,0,1,0,--.--,--.--,--.--
2023-01-16 12:23:07.982,1.6,6.3,276,0.0,0.0,0.0,0.2,0.0,0.000,-0.0,-0.1,-0.1,0.020,-0.096,0.000,0.0,00:00:43,0.6,0,--.--,--.--,--.--,50,0000:00:00,90,0,50,50,50,0,0,3.62,0,0,0,15.50,0.83,3805,--.--,78,--.--,--:--:--,1,12.86,12:23:07,16/01/23,--.--,--.--,--.--,--.--,--.--,--.--,--.--,--.--,--.--,3.62,--.--,7.00,0,0.000,0.000,0.000,0.000,0.000,0.000,0.000,0.000,0.000,0.000,0.000,0.000,false,false,false,false,false,false,false,false,false,false,false,false,--.--,--.--,--.--,--.--,--.--,--.--,--.--,--.--,22.2341815,68.9617778,42QVK 96061 58748,100.0,100.0,319.8,1,0,--.--,--.--,,--.--,--.--,--.--,0,0,--.--,--.--,0,-14.0,-10.0,0.1,-0.1,-0.1,0.0,--.--,--.--,--.--,--.--,--.--,--.--,--.--,--.--,--.--,--.--,--.--,--.--,62.77,21.04,--.--,0,0,0.0,0.0,0.0,0,1,0,--.--,--.--,--.--
2023-01-16 12:23:08.982,2.5,9.2,276,0.0,0.0,0.0,0.1,0.0,0.000,0.1,-0.0,-0.1,0.070,-0.006,0.000,0.0,00:00:44,0.5,0,--.--,--.--,--.--,50,0000:00:00,90,0,50,50,50,0,0,0.00,0,0,0,15.49,0.89,3805,--.--,78,--.--,--:--:--,1,13.79,12:23:08,16/01/23,--.--,--.--,--.--,--.--,--.--,--.--,--.--,--.--,--.--,0.00,--.--,7.00,0,0.000,0.000,0.000,0.000,0.000,0.000,0.000,0.000,0.000,0.000,0.000,0.000,false,false,false,false,false,false,false,false,false,false,false,false,--.--,--.--,--.--,--.--,--.--,--.--,--.--,--.--,22.2341815,68.9617778,42QVK 96061 58748,100.0,100.0,319.8,1,0,--.--,--.--,,--.--,--.--,--.--,0,0,--.--,--.--,0,-14.1,-10.0,0.1,-0.1,-0.0,-0.1,--.--,--.--,--.--,--.--,--.--,--.--,--.--,--.--,--.--,--.--,--.--,--.--,62.76,21.04,--.--,0,0,0.0,0.0,0.1,0,1,0,--.--,--.--,--.--
2023-01-16 12:23:09.983,2.6,7.4,277,0.0,0.0,0.0,0.1,0.0,0.000,-0.1,-0.1,-0.1,0.030,0.016,0.000,0.0,00:00:45,0.5,2,187,--.--,--.--,56,0000:00:00,90,0,50,50,50,0,0,3.68,0,0,0,15.49,0.91,3806,--.--,78,--.--,--:--:--,1,14.10,12:23:09,16/01/23,--.--,--.--,--.--,--.--,--.--,--.--,--.--,--.--,--.--,3.68,--.--,7.00,0,0.000,0.000,0.000,0.000,0.000,0.000,0.000,0.000,0.000,0.000,0.000,0.000,false,false,false,false,false,false,false,false,false,false,false,false,--.--,--.--,--.--,--.--,--.--,--.--,--.--,--.--,22.2341815,68.9617778,42QVK 96061 58748,100.0,100.0,319.8,1,0,--.--,--.--,,--.--,--.--,--.--,0,0,--.--,--.--,0,-14.2,-10.0,0.1,-0.0,-0.1,0.1,--.--,--.--,--.--,--.--,--.--,--.--,--.--,--.--,--.--,--.--,--.--,--.--,62.77,21.04,--.--,0,0,0.1,0.1,0.1,0,1,0,--.--,--.--,--.--
2023-01-16 12:23:10.982,2.8,7.5,276,0.0,0.0,0.0,0.0,0.0,0.000,0.1,-0.0,-0.1,0.060,0.058,0.000,0.0,00:00:46,0.6,2,187,--.--,--.--,48,0000:00:00,90,0,50,50,50,0,0,3.69,0,0,0,15.49,0.86,3806,--.--,78,--.--,--:--:--,1,13.32,12:23:10,16/01/23,--.--,--.--,--.--,--.--,--.--,--.--,--.--,--.--,--.--,3.69,--.--,7.00,0,0.000,0.000,0.000,0.000,0.000,0.000,0.000,0.000,0.000,0.000,0.000,0.000,false,false,false,false,false,false,false,false,false,false,false,false,--.--,--.--,--.--,--.--,--.--,--.--,--.--,--.--,22.2341815,68.9617778,42QVK 96061 58748,100.0,100.0,319.8,1,0,--.--,--.--,,--.--,--.--,--.--,0,0,--.--,--.--,0,-14.3,-10.0,0.1,-0.0,0.0,-0.1,--.--,--.--,--.--,--.--,--.--,--.--,--.--,--.--,--.--,--.--,--.--,--.--,62.77,21.04,--.--,0,0,0.0,0.0,0.1,0,1,0,--.--,--.--,--.--
2023-01-16 12:23:11.982,1.8,6.4,276,0.0,0.0,0.0,0.1,0.0,0.000,-0.1,-0.1,-0.1,0.040,0.045,0.000,0.0,00:00:47,0.6,2,187,--.--,--.--,53,0000:00:00,90,0,50,50,50,0,0,3.81,0,0,0,15.49,0.85,3806,--.--,78,--.--,--:--:--,1,13.17,12:23:11,16/01/23,--.--,--.--,--.--,--.--,--.--,--.--,--.--,--.--,--.--,3.81,--.--,7.00,0,0.000,0.000,0.000,0.000,0.000,0.000,0.000,0.000,0.000,0.000,0.000,0.000,false,false,false,false,false,false,false,false,false,false,false,false,--.--,--.--,--.--,--.--,--.--,--.--,--.--,--.--,22.2341815,68.9617778,42QVK 96061 58748,100.0,100.0,319.8,1,0,--.--,--.--,,--.--,--.--,--.--,0,0,--.--,--.--,0,-14.4,-10.0,0.1,-0.1,-0.0,0.1,--.--,--.--,--.--,--.--,--.--,--.--,--.--,--.--,--.--,--.--,--.--,--.--,62.77,21.04,--.--,0,0,0.0,0.0,0.1,0,1,0,--.--,--.--,--.--
2023-01-16 12:23:12.983,2.6,5.3,275,0.0,0.0,0.0,0.1,0.0,0.000,-0.1,-0.1,-0.1,-0.010,-0.057,0.000,0.0,00:00:48,0.5,2,187,--.--,--.--,61,0000:00:00,90,0,50,50,50,0,0,3.66,0,0,0,15.49,0.86,3806,--.--,78,--.--,--:--:--,1,13.32,12:23:12,16/01/23,--.--,--.--,--.--,--.--,--.--,--.--,--.--,--.--,--.--,3.66,--.--,7.00,0,0.000,0.000,0.000,0.000,0.000,0.000,0.000,0.000,0.000,0.000,0.000,0.000,false,false,false,false,false,false,false,false,false,false,false,false,--.--,--.--,--.--,--.--,--.--,--.--,--.--,--.--,22.2341815,68.9617778,42QVK 96061 58748,100.0,100.0,319.8,1,0,--.--,--.--,,--.--,--.--,--.--,0,0,--.--,--.--,0,-14.3,-10.0,0.1,0.0,-0.1,0.1,--.--,--.--,--.--,--.--,--.--,--.--,--.--,--.--,--.--,--.--,--.--,--.--,62.77,21.03,--.--,0,0,0.0,0.0,0.1,0,1,0,--.--,--.--,--.--
2023-01-16 12:23:13.983,1.5,8.5,275,0.0,0.0,0.0,0.1,0.0,0.000,0.1,0.0,0.0,0.130,0.200,0.000,0.0,00:00:49,0.5,2,187,--.--,--.--,38,0000:00:00,90,0,50,50,50,0,0,3.69,0,0,0,15.49,0.85,3807,--.--,78,--.--,--:--:--,1,13.17,12:23:13,16/01/23,--.--,--.--,--.--,--.--,--.--,--.--,--.--,--.--,--.--,3.69,--.--,7.00,0,0.000,0.000,0.000,0.000,0.000,0.000,0.000,0.000,0.000,0.000,0.000,0.000,false,false,false,false,false,false,false,false,false,false,false,false,--.--,--.--,--.--,--.--,--.--,--.--,--.--,--.--,22.2341815,68.9617778,42QVK 96061 58748,100.0,100.0,319.8,1,0,--.--,--.--,,--.--,--.--,--.--,0,0,--.--,--.--,0,-14.3,-10.1,0.0,-0.0,0.1,-0.1,--.--,--.--,--.--,--.--,--.--,--.--,--.--,--.--,--.--,--.--,--.--,--.--,62.77,21.04,--.--,0,0,0.0,0.1,0.0,0,1,0,--.--,--.--,--.--
2023-01-16 12:23:14.985,2.3,9.1,275,0.0,0.0,0.0,0.2,0.0,0.000,-0.1,-0.0,-0.1,0.070,0.114,0.000,0.0,00:00:50,0.5,2,187,--.--,--.--,48,0000:00:00,90,0,50,50,50,0,0,3.85,0,0,0,15.49,0.86,3807,--.--,78,--.--,--:--:--,1,13.33,12:23:14,16/01/23,--.--,--.--,--.--,--.--,--.--,--.--,--.--,--.--,--.--,3.85,--.--,7.00,0,0.000,0.000,0.000,0.000,0.000,0.000,0.000,0.000,0.000,0.000,0.000,0.000,false,false,false,false,false,false,false,false,false,false,false,false,--.--,--.--,--.--,--.--,--.--,--.--,--.--,--.--,22.2341815,68.9617778,42QVK 96061 58748,100.0,100.0,319.8,1,0,--.--,--.--,,--.--,--.--,--.--,0,0,--.--,--.--,0,-14.3,-10.0,0.1,0.1,0.1,0.1,--.--,--.--,--.--,--.--,--.--,--.--,--.--,--.--,--.--,--.--,--.--,--.--,62.77,21.04,--.--,0,0,0.0,0.1,0.0,0,1,0,--.--,--.--,--.--
2023-01-16 12:23:15.985,2.0,6.2,276,0.0,0.0,0.0,0.1,0.0,0.000,0.0,-0.1,-0.2,-0.030,-0.122,0.000,0.0,00:00:51,0.6,2,187,--.--,--.--,61,0000:00:00,90,0,50,50,50,0,0,3.66,0,0,0,15.49,0.87,3807,--.--,78,--.--,--:--:--,1,13.48,12:23:15,16/01/23,--.--,--.--,--.--,--.--,--.--,--.--,--.--,--.--,--.--,3.66,--.--,7.00,0,0.000,0.000,0.000,0.000,0.000,0.000,0.000,0.000,0.000,0.000,0.000,0.000,false,false,false,false,false,false,false,false,false,false,false,false,--.--,--.--,--.--,--.--,--.--,--.--,--.--,--.--,22.2341815,68.9617778,42QVK 96061 58748,100.0,100.0,319.8,1,0,--.--,--.--,,--.--,--.--,--.--,0,0,--.--,--.--,0,-14.2,-9.9,0.2,0.1,-0.0,-0.0,--.--,--.--,--.--,--.--,--.--,--.--,--.--,--.--,--.--,--.--,--.--,--.--,62.77,21.04,--.--,0,0,0.0,0.0,0.1,0,1,0,--.--,--.--,--.--
2023-01-16 12:23:16.982,2.0,7.3,277,0.0,0.0,0.0,0.1,0.0,0.000,0.0,-0.0,-0.1,0.050,0.045,0.000,0.0,00:00:52,0.6,2,187,--.--,--.--,51,0000:00:00,90,0,50,50,50,0,0,3.82,0,0,0,15.49,0.86,3807,--.--,78,--.--,--:--:--,1,13.32,12:23:16,16/01/23,--.--,--.--,--.--,--.--,--.--,--.--,--.--,--.--,--.--,3.82,--.--,7.00,0,0.000,0.000,0.000,0.000,0.000,0.000,0.000,0.000,0.000,0.000,0.000,0.000,false,false,false,false,false,false,false,false,false,false,false,false,--.--,--.--,--.--,--.--,--.--,--.--,--.--,--.--,22.2341815,68.9617778,42QVK 96061 58748,100.0,100.0,319.8,1,0,--.--,--.--,,--.--,--.--,--.--,0,0,--.--,--.--,0,-14.1,-9.9,0.1,0.1,0.1,-0.0,--.--,--.--,--.--,--.--,--.--,--.--,--.--,--.--,--.--,--.--,--.--,--.--,62.78,21.04,--.--,0,0,0.0,0.1,0.1,0,1,0,--.--,--.--,--.--
2023-01-16 12:23:17.983,-0.8,7.3,276,0.0,0.0,0.0,0.0,0.0,0.000,-0.1,-0.1,-0.2,-0.050,-0.138,0.000,0.0,00:00:53,0.7,2,187,--.--,--.--,69,0000:00:00,90,0,50,50,50,0,0,3.62,0,0,0,15.49,0.86,3808,--.--,78,--.--,--:--:--,1,13.32,12:23:17,16/01/23,--.--,--.--,--.--,--.--,--.--,--.--,--.--,--.--,--.--,3.62,--.--,7.00,0,0.000,0.000,0.000,0.000,0.000,0.000,0.000,0.000,0.000,0.000,0.000,0.000,false,false,false,false,false,false,false,false,false,false,false,false,--.--,--.--,--.--,--.--,--.--,--.--,--.--,--.--,22.2341815,68.9617778,42QVK 96061 58748,100.0,100.0,319.8,1,0,--.--,--.--,,--.--,--.--,--.--,0,0,--.--,--.--,0,-14.0,-9.8,0.2,-0.0,0.0,0.1,--.--,--.--,--.--,--.--,--.--,--.--,--.--,--.--,--.--,--.--,--.--,--.--,62.77,21.05,--.--,0,0,0.0,0.0,0.0,0,1,0,--.--,--.--,--.--
2023-01-16 12:23:18.982,1.2,8.6,277,0.0,0.0,0.0,0.0,0.0,0.000,0.0,-0.1,-0.2,-0.040,-0.136,0.000,0.0,00:00:54,0.7,2,187,--.--,--.--,67,0000:00:00,90,0,50,50,50,0,0,3.64,0,0,0,15.49,0.86,3808,--.--,78,--.--,--:--:--,1,13.32,12:23:18,16/01/23,--.--,--.--,--.--,--.--,--.--,--.--,--.--,--.--,--.--,3.64,--.--,7.00,0,0.000,0.000,0.000,0.000,0.000,0.000,0.000,0.000,0.000,0.000,0.000,0.000,false,false,false,false,false,false,false,false,false,false,false,false,--.--,--.--,--.--,--.--,--.--,--.--,--.--,--.--,22.2341815,68.9617778,42QVK 96061 58748,100.0,100.0,319.8,1,0,--.--,--.--,,--.--,--.--,--.--,0,0,--.--,--.--,0,-14.0,-9.8,0.2,-0.0,-0.0,-0.0,--.--,--.--,--.--,--.--,--.--,--.--,--.--,--.--,--.--,--.--,--.--,--.--,62.77,21.05,--.--,0,0,0.0,0.0,0.0,0,1,0,--.--,--.--,--.--
2023-01-16 12:23:19.991,2.8,9.2,281,0.0,0.0,0.0,0.0,0.0,0.000,0.1,-0.0,-0.1,0.050,-0.046,0.000,0.0,00:00:55,0.7,2,187,--.--,--.--,50,0000:00:00,90,0,50,50,50,0,0,3.66,0,0,0,15.49,0.88,3808,--.--,78,--.--,--:--:--,1,13.63,12:23:19,16/01/23,--.--,--.--,--.--,--.--,--.--,--.--,--.--,--.--,--.--,3.66,--.--,7.00,0,0.000,0.000,0.000,0.000,0.000,0.000,0.000,0.000,0.000,0.000,0.000,0.000,false,false,false,false,false,false,false,false,false,false,false,false,--.--,--.--,--.--,--.--,--.--,--.--,--.--,--.--,22.2341815,68.9617778,42QVK 96061 58748,100.0,100.0,319.8,1,0,--.--,--.--,,--.--,--.--,--.--,0,0,--.--,--.--,0,-14.1,-9.8,0.1,-0.0,0.0,-0.1,--.--,--.--,--.--,--.--,--.--,--.--,--.--,--.--,--.--,--.--,--.--,--.--,62.77,21.05,--.--,0,0,0.0,0.0,0.0,0,1,0,--.--,--.--,--.--
2023-01-16 12:23:20.983,2.2,11.4,282,0.0,0.0,0.0,0.2,0.0,0.000,0.1,0.0,0.0,0.130,0.124,0.000,0.0,00:00:56,0.7,2,187,--.--,--.--,50,0000:00:00,90,0,50,50,50,0,0,3.66,0,0,0,15.49,0.86,3808,--.--,78,--.--,--:--:--,1,13.32,12:23:20,16/01/23,--.--,--.--,--.--,--.--,--.--,--.--,--.--,--.--,--.--,3.66,--.--,7.00,0,0.000,0.000,0.000,0.000,0.000,0.000,0.000,0.000,0.000,0.000,0.000,0.000,false,false,false,false,false,false,false,false,false,false,false,false,--.--,--.--,--.--,--.--,--.--,--.--,--.--,--.--,22.2341815,68.9617778,42QVK 96061 58748,100.0,100.0,319.8,1,0,--.--,--.--,,--.--,--.--,--.--,0,0,--.--,--.--,0,-14.2,-9.8,0.0,-0.1,0.1,-0.1,--.--,--.--,--.--,--.--,--.--,--.--,--.--,--.--,--.--,--.--,--.--,--.--,62.78,21.05,--.--,0,0,0.1,0.0,0.1,0,1,0,--.--,--.--,--.--
2023-01-16 12:23:21.983,2.1,5.2,282,0.0,0.0,0.0,0.1,0.0,0.000,-0.2,-0.1,-0.2,-0.040,-0.181,0.000,0.0,00:00:57,0.7,2,187,--.--,--.--,50,0000:00:00,98,0,50,50,50,0,0,3.62,0,0,0,15.49,0.87,3809,--.--,78,--.--,--:--:--,1,13.48,12:23:21,16/01/23,--.--,--.--,--.--,--.--,--.--,--.--,--.--,--.--,--.--,3.62,--.--,7.00,0,0.000,0.000,0.000,0.000,0.000,0.000,0.000,0.000,0.000,0.000,0.000,0.000,false,false,false,false,false,false,false,false,false,false,false,false,--.--,--.--,--.--,--.--,--.--,--.--,--.--,--.--,22.2341815,68.9617778,42QVK 96061 58748,100.0,100.0,319.8,1,0,--.--,--.--,,--.--,--.--,--.--,0,0,--.--,--.--,0,-14.2,-9.8,0.2,-0.0,-0.1,0.2,--.--,--.--,--.--,--.--,--.--,--.--,--.--,--.--,--.--,--.--,--.--,--.--,62.78,21.05,--.--,0,0,0.1,0.1,0.1,0,1,0,--.--,--.--,--.--
2023-01-16 12:23:22.983,3.4,6.4,284,0.0,0.0,0.0,0.1,0.0,0.000,0.1,-0.1,-0.1,0.010,-0.122,0.000,0.0,00:00:58,0.8,2,187,--.--,--.--,50,0000:00:00,85,0,50,50,50,0,0,3.56,0,0,0,15.49,0.89,3809,--.--,78,--.--,--:--:--,1,13.79,12:23:22,16/01/23,--.--,--.--,--.--,--.--,--.--,--.--,--.--,--.--,--.--,3.56,--.--,7.00,0,0.000,0.000,0.000,0.000,0.000,0.000,0.000,0.000,0.000,0.000,0.000,0.000,false,false,false,false,false,false,false,false,false,false,false,false,--.--,--.--,--.--,--.--,--.--,--.--,--.--,--.--,22.2341815,68.9617778,42QVK 96061 58748,100.0,100.0,319.8,1,0,--.--,--.--,,--.--,--.--,--.--,0,0,--.--,--.--,0,-14.4,-9.8,0.1,-0.1,-0.0,-0.1,--.--,--.--,--.--,--.--,--.--,--.--,--.--,--.--,--.--,--.--,--.--,--.--,62.78,21.06,--.--,0,0,0.0,0.1,0.0,0,1,0,--.--,--.--,--.--
2023-01-16 12:23:23.982,3.6,6.5,287,0.0,0.0,0.0,0.1,0.0,0.000,-0.0,-0.0,-0.1,0.080,0.039,0.000,0.0,00:00:59,0.8,2,187,--.--,--.--,50,0000:00:00,59,0,50,50,50,0,0,3.56,0,0,0,15.49,0.88,3809,--.--,78,--.--,--:--:--,1,13.63,12:23:23,16/01/23,--.--,--.--,--.--,--.--,--.--,--.--,--.--,--.--,--.--,3.56,--.--,7.00,0,0.000,0.000,0.000,0.000,0.000,0.000,0.000,0.000,0.000,0.000,0.000,0.000,false,false,false,false,false,false,false,false,false,false,false,false,--.--,--.--,--.--,--.--,--.--,--.--,--.--,--.--,22.2341815,68.9617778,42QVK 96061 58748,100.0,100.0,319.8,1,0,--.--,--.--,,--.--,--.--,--.--,0,0,--.--,--.--,0,-14.4,-9.8,0.1,-0.1,0.0,0.0,--.--,--.--,--.--,--.--,--.--,--.--,--.--,--.--,--.--,--.--,--.--,--.--,62.77,21.06,--.--,0,0,0.0,0.0,0.0,0,1,0,--.--,--.--,--.--
2023-01-16 12:23:24.982,1.8,7.5,289,0.0,0.0,0.0,0.1,0.0,0.000,-0.0,-0.1,-0.1,0.040,-0.056,0.000,0.0,00:01:00,0.8,2,187,--.--,--.--,50,0000:00:00,59,0,50,50,50,0,0,3.47,0,0,0,15.49,0.87,3809,--.--,78,--.--,--:--:--,1,13.48,12:23:24,16/01/23,--.--,--.--,--.--,--.--,--.--,--.--,--.--,--.--,--.--,3.47,--.--,7.00,0,0.000,0.000,0.000,0.000,0.000,0.000,0.000,0.000,0.000,0.000,0.000,0.000,false,false,false,false,false,false,false,false,false,false,false,false,--.--,--.--,--.--,--.--,--.--,--.--,--.--,--.--,22.2341815,68.9617778,42QVK 96061 58748,100.0,100.0,319.8,1,0,--.--,--.--,,--.--,--.--,--.--,0,0,--.--,--.--,0,-14.5,-9.9,0.1,-0.1,-0.1,0.0,--.--,--.--,--.--,--.--,--.--,--.--,--.--,--.--,--.--,--.--,--.--,--.--,62.78,21.06,--.--,0,0,0.0,0.0,0.0,0,1,0,--.--,--.--,--.--
2023-01-16 12:23:25.982,3.9,2.7,289,0.0,0.0,0.0,0.1,0.0,0.000,0.1,-0.1,-0.1,0.040,-0.080,0.000,0.0,00:01:01,0.8,2,187,--.--,--.--,53,0000:00:00,59,0,50,50,50,0,0,3.63,0,0,0,15.49,0.87,3810,--.--,78,--.--,--:--:--,1,13.47,12:23:25,16/01/23,--.--,--.--,--.--,--.--,--.--,--.--,--.--,--.--,--.--,3.63,--.--,7.00,0,0.000,0.000,0.000,0.000,0.000,0.000,0.000,0.000,0.000,0.000,0.000,0.000,false,false,false,false,false,false,false,false,false,false,false,false,--.--,--.--,--.--,--.--,--.--,--.--,--.--,--.--,22.2341815,68.9617778,42QVK 96061 58748,100.0,100.0,319.8,1,0,--.--,--.--,,--.--,--.--,--.--,0,0,--.--,--.--,0,-14.6,-10.0,0.1,0.0,-0.1,-0.1,--.--,--.--,--.--,--.--,--.--,--.--,--.--,--.--,--.--,--.--,--.--,--.--,62.77,21.06,--.--,0,0,0.0,0.0,0.0,0,1,0,--.--,--.--,--.--
2023-01-16 12:23:26.982,2.8,5.8,288,0.0,0.0,0.0,0.0,0.0,0.000,-0.0,0.0,0.0,0.130,0.129,0.000,0.0,00:01:02,0.8,2,187,--.--,--.--,50,0000:00:00,59,0,50,50,50,0,0,3.77,0,0,0,15.49,0.89,3810,--.--,78,--.--,--:--:--,1,13.79,12:23:26,16/01/23,--.--,--.--,--.--,--.--,--.--,--.--,--.--,--.--,--.--,3.77,--.--,7.00,0,0.000,0.000,0.000,0.000,0.000,0.000,0.000,0.000,0.000,0.000,0.000,0.000,false,false,false,false,false,false,false,false,false,false,false,false,--.--,--.--,--.--,--.--,--.--,--.--,--.--,--.--,22.2341815,68.9617778,42QVK 96061 58748,100.0,100.0,319.8,1,0,--.--,--.--,,--.--,--.--,--.--,0,0,--.--,--.--,0,-14.6,-10.0,0.0,0.0,0.0,0.0,--.--,--.--,--.--,--.--,--.--,--.--,--.--,--.--,--.--,--.--,--.--,--.--,62.78,21.06,--.--,0,0,0.0,0.0,0.0,0,1,0,--.--,--.--,--.--
2023-01-16 12:23:27.982,3.0,2.4,287,0.0,0.0,0.0,0.1,0.0,0.000,-0.0,-0.1,-0.1,0.030,-0.075,0.000,0.0,00:01:03,0.7,2,187,--.--,--.--,50,0000:00:00,59,0,50,50,50,0,0,3.61,0,0,0,15.49,0.87,3810,--.--,78,--.--,--:--:--,1,13.48,12:23:27,16/01/23,--.--,--.--,--.--,--.--,--.--,--.--,--.--,--.--,--.--,3.61,--.--,7.00,0,0.000,0.000,0.000,0.000,0.000,0.000,0.000,0.000,0.000,0.000,0.000,0.000,false,false,false,false,false,false,false,false,false,false,false,false,--.--,--.--,--.--,--.--,--.--,--.--,--.--,--.--,22.2341815,68.9617778,42QVK 96061 58748,100.0,100.0,319.8,1,0,--.--,--.--,,--.--,--.--,--.--,0,0,--.--,--.--,0,-14.5,-10.0,0.1,0.1,-0.1,0.0,--.--,--.--,--.--,--.--,--.--,--.--,--.--,--.--,--.--,--.--,--.--,--.--,62.77,21.06,--.--,0,0,0.0,0.0,0.0,0,1,0,--.--,--.--,--.--
2023-01-16 12:23:28.983,2.5,6.2,288,0.0,0.0,0.0,0.1,0.0,0.000,-0.0,-0.0,-0.1,0.070,0.002,0.000,0.0,00:01:04,0.6,2,187,--.--,--.--,50,0000:00:00,59,0,50,50,50,0,0,3.90,0,0,0,15.49,0.84,3810,--.--,78,--.--,--:--:--,1,13.01,12:23:28,16/01/23,--.--,--.--,--.--,--.--,--.--,--.--,--.--,--.--,--.--,3.90,--.--,7.00,0,0.000,0.000,0.000,0.000,0.000,0.000,0.000,0.000,0.000,0.000,0.000,0.000,false,false,false,false,false,false,false,false,false,false,false,false,--.--,--.--,--.--,--.--,--.--,--.--,--.--,--.--,22.2341815,68.9617778,42QVK 96061 58748,100.0,100.0,319.8,1,0,--.--,--.--,,--.--,--.--,--.--,0,0,--.--,--.--,0,-14.4,-10.0,0.1,0.1,0.1,0.1,--.--,--.--,--.--,--.--,--.--,--.--,--.--,--.--,--.--,--.--,--.--,--.--,62.78,21.06,--.--,0,0,0.0,0.0,0.0,0,1,0,--.--,--.--,--.--
2023-01-16 12:23:29.983,3.9,4.5,289,0.0,0.0,0.0,0.1,0.0,0.000,-0.0,-0.1,-0.1,0.010,-0.117,0.000,0.0,00:01:05,0.6,2,187,--.--,--.--,75,0000:00:00,59,0,50,50,50,0,0,3.61,0,0,0,15.49,0.89,3811,--.--,78,--.--,--:--:--,1,13.79,12:23:29,16/01/23,--.--,--.--,--.--,--.--,--.--,--.--,--.--,--.--,--.--,3.61,--.--,7.00,0,0.000,0.000,0.000,0.000,0.000,0.000,0.000,0.000,0.000,0.000,0.000,0.000,false,false,false,false,false,false,false,false,false,false,false,false,--.--,--.--,--.--,--.--,--.--,--.--,--.--,--.--,22.2341815,68.9617778,42QVK 96061 58748,100.0,100.0,319.8,1,0,--.--,--.--,,--.--,--.--,--.--,0,0,--.--,--.--,0,-14.3,-10.0,0.1,0.1,-0.0,0.0,--.--,--.--,--.--,--.--,--.--,--.--,--.--,--.--,--.--,--.--,--.--,--.--,62.77,21.06,--.--,0,0,0.0,0.0,0.1,0,1,0,--.--,--.--,--.--
2023-01-16 12:23:30.983,2.0,3.7,289,0.0,0.0,0.0,0.0,0.0,0.000,-0.0,-0.1,-0.1,0.010,-0.128,0.000,0.0,00:01:06,0.6,2,187,--.--,--.--,75,0000:00:00,59,0,50,50,50,0,0,3.73,0,0,0,15.49,0.89,3811,--.--,78,--.--,--:--:--,1,13.79,12:23:30,16/01/23,--.--,--.--,--.--,--.--,--.--,--.--,--.--,--.--,--.--,3.73,--.--,7.00,0,0.000,0.000,0.000,0.000,0.000,0.000,0.000,0.000,0.000,0.000,0.000,0.000,false,false,false,false,false,false,false,false,false,false,false,false,--.--,--.--,--.--,--.--,--.--,--.--,--.--,--.--,22.2341815,68.9617778,42QVK 96061 58748,100.0,100.0,319.8,1,0,--.--,--.--,,--.--,--.--,--.--,0,0,--.--,--.--,0,-14.3,-10.0,0.1,-0.0,-0.0,0.0,--.--,--.--,--.--,--.--,--.--,--.--,--.--,--.--,--.--,--.--,--.--,--.--,62.78,21.06,--.--,0,0,0.0,0.0,0.0,0,1,0,--.--,--.--,--.--
2023-01-16 12:23:31.982,1.5,4.0,289,0.0,0.0,0.0,0.1,0.0,0.000,0.0,-0.1,-0.1,0.040,-0.055,0.000,0.0,00:01:07,0.5,2,187,--.--,--.--,50,0000:00:00,59,0,50,50,50,0,0,3.74,0,0,0,15.49,0.85,3811,--.--,78,--.--,--:--:--,1,13.17,12:23:31,16/01/23,--.--,--.--,--.--,--.--,--.--,--.--,--.--,--.--,--.--,3.74,--.--,7.00,0,0.000,0.000,0.000,0.000,0.000,0.000,0.000,0.000,0.000,0.000,0.000,0.000,false,false,false,false,false,false,false,false,false,false,false,false,--.--,--.--,--.--,--.--,--.--,--.--,--.--,--.--,22.2341815,68.9617778,42QVK 96061 58748,100.0,100.0,319.8,1,0,--.--,--.--,,--.--,--.--,--.--,0,0,--.--,--.--,0,-14.4,-10.1,0.1,-0.1,-0.1,-0.0,--.--,--.--,--.--,--.--,--.--,--.--,--.--,--.--,--.--,--.--,--.--,--.--,62.77,21.06,--.--,0,0,0.0,0.1,0.0,0,1,0,--.--,--.--,--.--
2023-01-16 12:23:32.982,4.3,4.2,288,0.0,0.0,0.0,0.0,0.0,0.000,-0.0,-0.0,-0.1,0.060,-0.017,0.000,0.0,00:01:08,0.6,2,187,--.--,--.--,50,0000:00:00,67,0,50,50,50,0,0,3.62,0,0,0,15.49,0.88,3811,--.--,78,--.--,--:--:--,1,13.63,12:23:32,16/01/23,--.--,--.--,--.--,--.--,--.--,--.--,--.--,--.--,--.--,3.62,--.--,7.00,0,0.000,0.000,0.000,0.000,0.000,0.000,0.000,0.000,0.000,0.000,0.000,0.000,false,false,false,false,false,false,false,false,false,false,false,false,--.--,--.--,--.--,--.--,--.--,--.--,--.--,--.--,22.2341815,68.9617778,42QVK 96061 58748,100.0,100.0,319.8,1,0,--.--,--.--,,--.--,--.--,--.--,0,0,--.--,--.--,0,-14.4,-10.1,0.1,-0.0,-0.0,0.0,--.--,--.--,--.--,--.--,--.--,--.--,--.--,--.--,--.--,--.--,--.--,--.--,62.78,21.06,--.--,0,0,0.0,0.1,0.0,0,1,0,--.--,--.--,--.--
2023-01-16 12:23:33.982,1.3,4.1,286,0.0,0.0,0.0,0.2,0.0,0.000,0.0,-0.1,-0.1,0.020,-0.090,0.000,0.0,00:01:09,0.5,2,187,--.--,--.--,50,0000:00:00,58,0,50,50,50,0,0,3.64,0,0,0,15.49,0.91,3811,--.--,78,--.--,--:--:--,1,14.10,12:23:33,16/01/23,--.--,--.--,--.--,--.--,--.--,--.--,--.--,--.--,--.--,3.64,--.--,7.00,0,0.000,0.000,0.000,0.000,0.000,0.000,0.000,0.000,0.000,0.000,0.000,0.000,false,false,false,false,false,false,false,false,false,false,false,false,--.--,--.--,--.--,--.--,--.--,--.--,--.--,--.--,22.2341815,68.9617778,42QVK 96061 58748,100.0,100.0,319.8,1,0,--.--,--.--,,--.--,--.--,--.--,0,0,--.--,--.--,0,-14.5,-10.2,0.1,-0.1,-0.1,-0.0,--.--,--.--,--.--,--.--,--.--,--.--,--.--,--.--,--.--,--.--,--.--,--.--,62.77,21.06,--.--,0,0,0.0,0.1,0.1,0,1,0,--.--,--.--,--.--
2023-01-16 12:23:34.982,3.1,4.3,284,0.0,0.0,0.0,0.1,0.0,0.000,0.0,-0.1,-0.1,0.040,-0.052,0.000,0.0,00:01:10,0.5,2,187,--.--,--.--,50,0000:00:00,58,0,50,50,50,0,0,3.65,0,0,0,15.49,0.84,3812,--.--,78,--.--,--:--:--,1,13.01,12:23:34,16/01/23,--.--,--.--,--.--,--.--,--.--,--.--,--.--,--.--,--.--,3.65,--.--,7.00,0,0.000,0.000,0.000,0.000,0.000,0.000,0.000,0.000,0.000,0.000,0.000,0.000,false,false,false,false,false,false,false,false,false,false,false,false,--.--,--.--,--.--,--.--,--.--,--.--,--.--,--.--,22.2341815,68.9617778,42QVK 96061 58748,100.0,100.0,319.8,1,0,--.--,--.--,,--.--,--.--,--.--,0,0,--.--,--.--,0,-14.6,-10.3,0.1,-0.1,-0.1,-0.0,--.--,--.--,--.--,--.--,--.--,--.--,--.--,--.--,--.--,--.--,--.--,--.--,62.78,21.06,--.--,0,0,0.0,0.1,0.0,0,1,0,--.--,--.--,--.--
2023-01-16 12:23:35.988,1.5,2.3,283,0.0,0.0,0.0,0.2,0.0,0.000,0.0,-0.1,-0.1,0.040,-0.053,0.000,0.0,00:01:11,0.6,2,187,--.--,--.--,50,0000:00:00,58,0,50,50,50,0,0,3.47,0,0,0,15.49,0.83,3812,--.--,78,--.--,--:--:--,1,12.86,12:23:35,16/01/23,--.--,--.--,--.--,--.--,--.--,--.--,--.--,--.--,--.--,3.47,--.--,7.00,0,0.000,0.000,0.000,0.000,0.000,0.000,0.000,0.000,0.000,0.000,0.000,0.000,false,false,false,false,false,false,false,false,false,false,false,false,--.--,--.--,--.--,--.--,--.--,--.--,--.--,--.--,22.2341815,68.9617778,42QVK 96061 58748,100.0,100.0,319.8,1,0,--.--,--.--,,--.--,--.--,--.--,0,0,--.--,--.--,0,-14.7,-10.4,0.1,-0.1,-0.2,-0.0,--.--,--.--,--.--,--.--,--.--,--.--,--.--,--.--,--.--,--.--,--.--,--.--,62.77,21.07,--.--,0,0,0.1,0.0,0.1,0,1,0,--.--,--.--,--.--
