Timestamp,roll,pitch,heading,rollRate,pitchRate,yawRate,groundSpeed,airSpeed,airSpeedSetpoint,climbRate,altitudeRelative,altitudeAMSL,altitudeTuning,altitudeTuningSetpoint,xTrackError,flightDistance,flightTime,distanceToHome,missionItemIndex,headingToNextWP,headingToHome,distanceToGCS,throttlePct,hobbs,apmSubInfo.cameraTilt,apmSubInfo.tetherTurns,apmSubInfo.lights1,apmSubInfo.lights2,apmSubInfo.pilotGain,apmSubInfo.inputHold,apmSubInfo.rollPitchToggle,apmSubInfo.rangefinderDistance,battery0.id,battery0.batteryFunction,battery0.batteryType,battery0.voltage,battery0.current,battery0.mahConsumed,battery0.temperature,battery0.percentRemaining,battery0.timeRemaining,battery0.timeRemainingStr,battery0.chargeState,battery0.instantPower,clock.currentTime,clock.currentDate,distanceSensor.rotationNone,distanceSensor.rotationYaw45,distanceSensor.rotationYaw90,distanceSensor.rotationYaw135,distanceSensor.rotationYaw180,distanceSensor.rotationYaw225,distanceSensor.rotationYaw270,distanceSensor.rotationYaw315,distanceSensor.rotationPitch90,distanceSensor.rotationPitch270,distanceSensor.minDistance,distanceSensor.maxDistance,escStatus.index,escStatus.rpm1,escStatus.rpm2,escStatus.rpm3,escStatus.rpm4,escStatus.current1,escStatus.current2,escStatus.current3,escStatus.current4,escStatus.voltage1,escStatus.voltage2,escStatus.voltage3,escStatus.voltage4,estimatorStatus.goodAttitudeEsimate,estimatorStatus.goodHorizVelEstimate,estimatorStatus.goodVertVelEstimate,estimatorStatus.goodHorizPosRelEstimate,estimatorStatus.goodHorizPosAbsEstimate,estimatorStatus.goodVertPosAbsEstimate,estimatorStatus.goodVertPosAGLEstimate,estimatorStatus.goodConstPosModeEstimate,estimatorStatus.goodPredHorizPosRelEstimate,estimatorStatus.goodPredHorizPosAbsEstimate,estimatorStatus.gpsGlitch,estimatorStatus.accelError,estimatorStatus.velRatio,estimatorStatus.horizPosRatio,estimatorStatus.vertPosRatio,estimatorStatus.magRatio,estimatorStatus.haglRatio,estimatorStatus.tasRatio,estimatorStatus.horizPosAccuracy,estimatorStatus.vertPosAccuracy,gps.lat,gps.lon,gps.mgrs,gps.hdop,gps.vdop,gps.courseOverGround,gps.lock,gps.count,gps2.lat,gps2.lon,gps2.mgrs,gps2.hdop,gps2.vdop,gps2.courseOverGround,gps2.lock,gps2.count,hygrometer.temperature,hygrometer.humidity,hygrometer.hygrometerid,localPosition.x,localPosition.y,localPosition.z,localPosition.vx,localPosition.vy,localPosition.vz,localPositionSetpoint.x,localPositionSetpoint.y,localPositionSetpoint.z,localPositionSetpoint.vx,localPositionSetpoint.vy,localPositionSetpoint.vz,setpoint.roll,setpoint.pitch,setpoint.yaw,setpoint.rollRate,setpoint.pitchRate,setpoint.yawRate,temperature.temperature1,temperature.temperature2,temperature.temperature3,terrain.blocksPending,terrain.blocksLoaded,vibration.xAxis,vibration.yAxis,vibration.zAxis,vibration.clipCount1,vibration.clipCount2,vibration.clipCount3,wind.direction,wind.speed,wind.verticalSpeed
2023-01-16 12:17:19.003,2.0,5.8,279,0.0,0.0,0.0,0.0,0.0,0.000,-0.0,-0.1,-0.1,-0.010,-0.071,0.000,0.0,00:00:00,0.0,0,--.--,--.--,--.--,50,0000:00:00,90,0,50,50,50,0,0,3.75,0,0,0,15.51,0.91,3724,--.--,79,--.--,--:--:--,1,14.12,12:17:19,16/01/23,--.--,--.--,--.--,--.--,--.--,--.--,--.--,--.--,--.--,3.75,--.--,7.00,0,0.000,0.000,0.000,0.000,0.000,0.000,0.000,0.000,0.000,0.000,0.000,0.000,false,false,false,false,false,false,false,false,false,false,false,false,--.--,--.--,--.--,--.--,--.--,--.--,--.--,--.--,22.2341815,68.9617778,42QVK 96061 58748,100.0,100.0,319.8,1,0,--.--,--.--,,--.--,--.--,--.--,0,0,--.--,--.--,0,-9.2,-7.2,0.1,0.0,-0.0,0.0,--.--,--.--,--.--,--.--,--.--,--.--,--.--,--.--,--.--,--.--,--.--,--.--,62.86,21.07,--.--,0,0,0.0,0.1,0.1,0,1,0,--.--,--.--,--.--
2023-01-16 12:17:19.998,3.4,7.7,280,0.0,0.0,0.0,0.1,0.0,0.000,0.0,-0.1,-0.1,0.010,-0.103,0.000,0.0,00:00:01,0.1,0,--.--,--.--,--.--,50,0000:00:00,90,0,50,50,50,0,0,3.62,0,0,0,15.51,0.87,3724,--.--,79,--.--,--:--:--,1,13.50,12:17:19,16/01/23,--.--,--.--,--.--,--.--,--.--,--.--,--.--,--.--,--.--,3.62,--.--,7.00,0,0.000,0.000,0.000,0.000,0.000,0.000,0.000,0.000,0.000,0.000,0.000,0.000,false,false,false,false,false,false,false,false,false,false,false,false,--.--,--.--,--.--,--.--,--.--,--.--,--.--,--.--,22.2341815,68.9617778,42QVK 96061 58748,100.0,100.0,319.8,1,0,--.--,--.--,,--.--,--.--,--.--,0,0,--.--,--.--,0,-9.0,-7.2,0.1,0.1,0.0,-0.0,--.--,--.--,--.--,--.--,--.--,--.--,--.--,--.--,--.--,--.--,--.--,--.--,62.86,21.07,--.--,0,0,0.0,0.0,0.0,0,1,0,--.--,--.--,--.--
2023-01-16 12:17:20.989,1.9,8.4,277,0.0,0.0,0.0,0.1,0.0,0.000,-0.2,-0.1,-0.1,-0.040,-0.093,0.000,0.0,00:00:02,0.2,0,--.--,--.--,--.--,50,0000:00:00,90,0,50,50,50,0,0,3.65,0,0,0,15.51,0.84,3724,--.--,79,--.--,--:--:--,1,13.03,12:17:20,16/01/23,--.--,--.--,--.--,--.--,--.--,--.--,--.--,--.--,--.--,3.65,--.--,7.00,0,0.000,0.000,0.000,0.000,0.000,0.000,0.000,0.000,0.000,0.000,0.000,0.000,false,false,false,false,false,false,false,false,false,false,false,false,--.--,--.--,--.--,--.--,--.--,--.--,--.--,--.--,22.2341815,68.9617778,42QVK 96061 58748,100.0,100.0,319.8,1,0,--.--,--.--,,--.--,--.--,--.--,0,0,--.--,--.--,0,-8.9,-7.2,0.1,0.1,0.0,0.1,--.--,--.--,--.--,--.--,--.--,--.--,--.--,--.--,--.--,--.--,--.--,--.--,62.87,21.06,--.--,0,0,0.0,0.1,0.0,0,1,0,--.--,--.--,--.--
2023-01-16 12:17:21.991,0.8,9.0,275,0.0,0.0,0.0,0.1,0.0,0.000,0.0,-0.1,-0.1,-0.010,-0.216,0.000,0.0,00:00:03,0.3,0,--.--,--.--,--.--,50,0000:00:00,90,0,50,50,50,0,0,3.52,0,0,0,15.52,0.83,3724,--.--,79,--.--,--:--:--,1,12.88,12:17:21,16/01/23,--.--,--.--,--.--,--.--,--.--,--.--,--.--,--.--,--.--,3.52,--.--,7.00,0,0.000,0.000,0.000,0.000,0.000,0.000,0.000,0.000,0.000,0.000,0.000,0.000,false,false,false,false,false,false,false,false,false,false,false,false,--.--,--.--,--.--,--.--,--.--,--.--,--.--,--.--,22.2341815,68.9617778,42QVK 96061 58748,100.0,100.0,319.8,1,0,--.--,--.--,,--.--,--.--,--.--,0,0,--.--,--.--,0,-8.8,-7.1,0.1,-0.0,0.1,-0.0,--.--,--.--,--.--,--.--,--.--,--.--,--.--,--.--,--.--,--.--,--.--,--.--,62.86,21.06,--.--,0,0,0.1,0.0,0.1,0,1,0,--.--,--.--,--.--
2023-01-16 12:17:22.989,2.9,5.2,274,0.0,0.0,0.0,0.1,0.0,0.000,-0.1,-0.2,-0.2,-0.080,-0.198,0.000,0.0,00:00:04,0.4,0,--.--,--.--,--.--,50,0000:00:00,90,0,50,50,50,0,0,3.78,0,0,0,15.51,0.87,3724,--.--,79,--.--,--:--:--,1,13.50,12:17:22,16/01/23,--.--,--.--,--.--,--.--,--.--,--.--,--.--,--.--,--.--,3.78,--.--,7.00,0,0.000,0.000,0.000,0.000,0.000,0.000,0.000,0.000,0.000,0.000,0.000,0.000,false,false,false,false,false,false,false,false,false,false,false,false,--.--,--.--,--.--,--.--,--.--,--.--,--.--,--.--,22.2341815,68.9617778,42QVK 96061 58748,100.0,100.0,319.8,1,0,--.--,--.--,,--.--,--.--,--.--,0,0,--.--,--.--,0,-8.8,-7.1,0.2,-0.0,-0.1,0.1,--.--,--.--,--.--,--.--,--.--,--.--,--.--,--.--,--.--,--.--,--.--,--.--,62.86,21.06,--.--,0,0,0.1,0.0,0.0,0,1,0,--.--,--.--,--.--
2023-01-16 12:17:23.989,1.9,6.4,273,0.0,0.0,0.0,0.1,0.0,0.000,0.0,-0.1,-0.1,-0.010,-0.135,0.000,0.0,00:00:05,0.3,0,--.--,--.--,--.--,50,0000:00:00,90,0,50,50,50,0,0,3.79,0,0,0,15.51,0.89,3725,--.--,79,--.--,--:--:--,1,13.80,12:17:23,16/01/23,--.--,--.--,--.--,--.--,--.--,--.--,--.--,--.--,--.--,3.79,--.--,7.00,0,0.000,0.000,0.000,0.000,0.000,0.000,0.000,0.000,0.000,0.000,0.000,0.000,false,false,false,false,false,false,false,false,false,false,false,false,--.--,--.--,--.--,--.--,--.--,--.--,--.--,--.--,22.2341815,68.9617778,42QVK 96061 58748,100.0,100.0,319.8,1,0,--.--,--.--,,--.--,--.--,--.--,0,0,--.--,--.--,0,-8.9,-7.1,0.1,-0.0,-0.0,-0.0,--.--,--.--,--.--,--.--,--.--,--.--,--.--,--.--,--.--,--.--,--.--,--.--,62.86,21.07,--.--,0,0,0.0,0.0,0.0,0,1,0,--.--,--.--,--.--
2023-01-16 12:17:24.989,4.4,5.6,272,0.0,0.0,0.0,0.0,0.0,0.000,0.1,-0.1,-0.1,0.020,-0.079,0.000,0.0,00:00:06,0.2,0,--.--,--.--,--.--,50,0000:00:00,90,0,50,50,50,0,0,3.77,0,0,0,15.51,0.90,3725,--.--,79,--.--,--:--:--,1,13.96,12:17:24,16/01/23,--.--,--.--,--.--,--.--,--.--,--.--,--.--,--.--,--.--,3.77,--.--,7.00,0,0.000,0.000,0.000,0.000,0.000,0.000,0.000,0.000,0.000,0.000,0.000,0.000,false,false,false,false,false,false,false,false,false,false,false,false,--.--,--.--,--.--,--.--,--.--,--.--,--.--,--.--,22.2341815,68.9617778,42QVK 96061 58748,100.0,100.0,319.8,1,0,--.--,--.--,,--.--,--.--,--.--,0,0,--.--,--.--,0,-9.0,-7.2,0.1,0.0,-0.0,-0.1,--.--,--.--,--.--,--.--,--.--,--.--,--.--,--.--,--.--,--.--,--.--,--.--,62.86,21.06,--.--,0,0,0.0,0.1,0.0,0,1,0,--.--,--.--,--.--
2023-01-16 12:17:25.989,1.6,8.2,273,0.0,0.0,0.0,0.1,0.0,0.000,-0.0,-0.0,-0.0,0.060,0.027,0.000,0.0,00:00:07,0.1,0,--.--,--.--,--.--,50,0000:00:00,90,0,50,50,50,0,0,3.77,0,0,0,15.51,0.86,3725,--.--,79,--.--,--:--:--,1,13.34,12:17:25,16/01/23,--.--,--.--,--.--,--.--,--.--,--.--,--.--,--.--,--.--,3.77,--.--,7.00,0,0.000,0.000,0.000,0.000,0.000,0.000,0.000,0.000,0.000,0.000,0.000,0.000,false,false,false,false,false,false,false,false,false,false,false,false,--.--,--.--,--.--,--.--,--.--,--.--,--.--,--.--,22.2341815,68.9617778,42QVK 96061 58748,100.0,100.0,319.8,1,0,--.--,--.--,,--.--,--.--,--.--,0,0,--.--,--.--,0,-9.1,-7.2,0.0,-0.1,0.0,0.0,--.--,--.--,--.--,--.--,--.--,--.--,--.--,--.--,--.--,--.--,--.--,--.--,62.86,21.07,--.--,0,0,0.0,0.0,0.0,0,1,0,--.--,--.--,--.--
2023-01-16 12:17:26.991,3.5,7.3,275,0.0,0.0,0.0,0.1,0.0,0.000,-0.1,-0.1,-0.1,-0.020,-0.133,0.000,0.0,00:00:08,0.0,0,--.--,--.--,--.--,50,0000:00:00,90,0,50,50,50,0,0,3.79,0,0,0,15.51,0.84,3725,--.--,79,--.--,--:--:--,1,13.03,12:17:26,16/01/23,--.--,--.--,--.--,--.--,--.--,--.--,--.--,--.--,--.--,3.79,--.--,7.00,0,0.000,0.000,0.000,0.000,0.000,0.000,0.000,0.000,0.000,0.000,0.000,0.000,false,false,false,false,false,false,false,false,false,false,false,false,--.--,--.--,--.--,--.--,--.--,--.--,--.--,--.--,22.2341815,68.9617778,42QVK 96061 58748,100.0,100.0,319.8,1,0,--.--,--.--,,--.--,--.--,--.--,0,0,--.--,--.--,0,-9.2,-7.2,0.1,-0.1,-0.1,0.1,--.--,--.--,--.--,--.--,--.--,--.--,--.--,--.--,--.--,--.--,--.--,--.--,62.87,21.06,--.--,0,0,0.0,0.0,0.0,0,1,0,--.--,--.--,--.--
2023-01-16 12:17:27.989,2.8,6.0,275,0.0,0.0,0.0,0.1,0.0,0.000,-0.0,-0.1,-0.1,-0.010,-0.126,0.000,0.0,00:00:09,0.0,0,--.--,--.--,--.--,50,0000:00:00,90,0,50,50,50,0,0,3.72,0,0,0,15.51,0.87,3726,--.--,79,--.--,--:--:--,1,13.49,12:17:27,16/01/23,--.--,--.--,--.--,--.--,--.--,--.--,--.--,--.--,--.--,3.72,--.--,7.00,0,0.000,0.000,0.000,0.000,0.000,0.000,0.000,0.000,0.000,0.000,0.000,0.000,false,false,false,false,false,false,false,false,false,false,false,false,--.--,--.--,--.--,--.--,--.--,--.--,--.--,--.--,22.2341815,68.9617778,42QVK 96061 58748,100.0,100.0,319.8,1,0,--.--,--.--,,--.--,--.--,--.--,0,0,--.--,--.--,0,-9.2,-7.2,0.1,-0.1,-0.1,0.0,--.--,--.--,--.--,--.--,--.--,--.--,--.--,--.--,--.--,--.--,--.--,--.--,62.87,21.06,--.--,0,0,0.0,0.0,0.0,0,1,0,--.--,--.--,--.--
2023-01-16 12:17:28.999,2.1,8.5,274,0.0,0.0,0.0,0.1,0.0,0.000,-0.1,-0.1,-0.1,0.030,-0.037,0.000,0.0,00:00:10,0.1,0,--.--,--.--,--.--,50,0000:00:00,90,0,50,50,50,0,0,3.59,0,0,0,15.51,0.89,3726,--.--,79,--.--,--:--:--,1,13.80,12:17:28,16/01/23,--.--,--.--,--.--,--.--,--.--,--.--,--.--,--.--,--.--,3.59,--.--,7.00,0,0.000,0.000,0.000,0.000,0.000,0.000,0.000,0.000,0.000,0.000,0.000,0.000,false,false,false,false,false,false,false,false,false,false,false,false,--.--,--.--,--.--,--.--,--.--,--.--,--.--,--.--,22.2341815,68.9617778,42QVK 96061 58748,100.0,100.0,319.8,1,0,--.--,--.--,,--.--,--.--,--.--,0,0,--.--,--.--,0,-9.3,-7.3,0.1,-0.1,0.0,0.1,--.--,--.--,--.--,--.--,--.--,--.--,--.--,--.--,--.--,--.--,--.--,--.--,62.87,21.06,--.--,0,0,0.0,0.0,0.1,0,1,0,--.--,--.--,--.--
2023-01-16 12:17:29.989,2.6,7.0,273,0.0,0.0,0.0,0.1,0.0,0.000,-0.0,-0.1,-0.1,-0.010,-0.130,0.000,0.0,00:00:11,0.2,0,--.--,--.--,--.--,50,0000:00:00,90,0,50,50,50,0,0,3.68,0,0,0,15.51,0.86,3726,--.--,79,--.--,--:--:--,1,13.34,12:17:29,16/01/23,--.--,--.--,--.--,--.--,--.--,--.--,--.--,--.--,--.--,3.68,--.--,7.00,0,0.000,0.000,0.000,0.000,0.000,0.000,0.000,0.000,0.000,0.000,0.000,0.000,false,false,false,false,false,false,false,false,false,false,false,false,--.--,--.--,--.--,--.--,--.--,--.--,--.--,--.--,22.2341815,68.9617778,42QVK 96061 58748,100.0,100.0,319.8,1,0,--.--,--.--,,--.--,--.--,--.--,0,0,--.--,--.--,0,-9.4,-7.3,0.1,-0.0,-0.0,0.0,--.--,--.--,--.--,--.--,--.--,--.--,--.--,--.--,--.--,--.--,--.--,--.--,62.87,21.06,--.--,0,0,0.1,0.0,0.1,0,1,0,--.--,--.--,--.--
2023-01-16 12:17:30.988,3.1,2.2,273,0.0,0.0,0.0,0.1,0.0,0.000,0.1,-0.2,-0.1,-0.050,-0.213,0.000,0.0,00:00:12,0.3,0,--.--,--.--,--.--,50,0000:00:00,90,0,50,50,50,0,0,3.60,0,0,0,15.51,0.84,3726,--.--,79,--.--,--:--:--,1,13.03,12:17:30,16/01/23,--.--,--.--,--.--,--.--,--.--,--.--,--.--,--.--,--.--,3.60,--.--,7.00,0,0.000,0.000,0.000,0.000,0.000,0.000,0.000,0.000,0.000,0.000,0.000,0.000,false,false,false,false,false,false,false,false,false,false,false,false,--.--,--.--,--.--,--.--,--.--,--.--,--.--,--.--,22.2341815,68.9617778,42QVK 96061 58748,100.0,100.0,319.8,1,0,--.--,--.--,,--.--,--.--,--.--,0,0,--.--,--.--,0,-9.4,-7.3,0.2,-0.0,-0.1,-0.1,--.--,--.--,--.--,--.--,--.--,--.--,--.--,--.--,--.--,--.--,--.--,--.--,62.87,21.06,--.--,0,0,0.1,0.1,0.1,0,1,0,--.--,--.--,--.--
2023-01-16 12:17:31.989,2.9,9.8,271,0.0,0.0,0.0,0.1,0.0,0.000,0.0,0.0,0.0,0.110,0.128,0.000,0.0,00:00:13,0.3,0,--.--,--.--,--.--,50,0000:00:00,90,0,50,50,50,0,0,3.76,0,0,0,15.51,0.86,3727,--.--,79,--.--,--:--:--,1,13.34,12:17:31,16/01/23,--.--,--.--,--.--,--.--,--.--,--.--,--.--,--.--,--.--,3.76,--.--,7.00,0,0.000,0.000,0.000,0.000,0.000,0.000,0.000,0.000,0.000,0.000,0.000,0.000,false,false,false,false,false,false,false,false,false,false,false,false,--.--,--.--,--.--,--.--,--.--,--.--,--.--,--.--,22.2341815,68.9617778,42QVK 96061 58748,100.0,100.0,319.8,1,0,--.--,--.--,,--.--,--.--,--.--,0,0,--.--,--.--,0,-9.5,-7.3,-0.0,-0.0,0.1,-0.0,--.--,--.--,--.--,--.--,--.--,--.--,--.--,--.--,--.--,--.--,--.--,--.--,62.88,21.06,--.--,0,0,0.0,0.0,0.1,0,1,0,--.--,--.--,--.--
2023-01-16 12:17:32.989,3.4,5.6,271,0.0,0.0,0.0,0.1,0.0,0.000,-0.1,-0.1,-0.1,0.010,-0.073,0.000,0.0,00:00:14,0.3,0,--.--,--.--,--.--,50,0000:00:00,90,0,50,50,50,0,0,3.81,0,0,0,15.51,0.87,3727,--.--,79,--.--,--:--:--,1,13.49,12:17:32,16/01/23,--.--,--.--,--.--,--.--,--.--,--.--,--.--,--.--,--.--,3.81,--.--,7.00,0,0.000,0.000,0.000,0.000,0.000,0.000,0.000,0.000,0.000,0.000,0.000,0.000,false,false,false,false,false,false,false,false,false,false,false,false,--.--,--.--,--.--,--.--,--.--,--.--,--.--,--.--,22.2341815,68.9617778,42QVK 96061 58748,100.0,100.0,319.8,1,0,--.--,--.--,,--.--,--.--,--.--,0,0,--.--,--.--,0,-9.5,-7.3,0.1,0.0,-0.0,0.1,--.--,--.--,--.--,--.--,--.--,--.--,--.--,--.--,--.--,--.--,--.--,--.--,62.88,21.06,--.--,0,0,0.0,0.0,0.0,0,1,0,--.--,--.--,--.--
2023-01-16 12:17:33.989,2.2,8.1,270,0.0,0.0,0.0,0.0,0.0,0.000,-0.0,-0.1,-0.1,-0.040,-0.188,0.000,0.0,00:00:15,0.3,0,--.--,--.--,--.--,50,0000:00:00,90,0,50,50,50,0,0,3.66,0,0,0,15.51,0.84,3727,--.--,79,--.--,--:--:--,1,13.03,12:17:33,16/01/23,--.--,--.--,--.--,--.--,--.--,--.--,--.--,--.--,--.--,3.66,--.--,7.00,0,0.000,0.000,0.000,0.000,0.000,0.000,0.000,0.000,0.000,0.000,0.000,0.000,false,false,false,false,false,false,false,false,false,false,false,false,--.--,--.--,--.--,--.--,--.--,--.--,--.--,--.--,22.2341815,68.9617778,42QVK 96061 58748,100.0,100.0,319.8,1,0,--.--,--.--,,--.--,--.--,--.--,0,0,--.--,--.--,0,-9.5,-7.3,0.1,0.0,-0.0,0.0,--.--,--.--,--.--,--.--,--.--,--.--,--.--,--.--,--.--,--.--,--.--,--.--,62.88,21.06,--.--,0,0,0.1,0.0,0.0,0,1,0,--.--,--.--,--.--
2023-01-16 12:17:34.989,3.3,8.9,271,0.0,0.0,0.0,0.1,0.0,0.000,0.1,-0.0,-0.0,0.060,0.006,0.000,0.0,00:00:16,0.3,0,--.--,--.--,--.--,50,0000:00:00,90,0,50,50,50,0,0,3.80,0,0,0,15.51,0.87,3727,--.--,79,--.--,--:--:--,1,13.49,12:17:34,16/01/23,--.--,--.--,--.--,--.--,--.--,--.--,--.--,--.--,--.--,3.80,--.--,7.00,0,0.000,0.000,0.000,0.000,0.000,0.000,0.000,0.000,0.000,0.000,0.000,0.000,false,false,false,false,false,false,false,false,false,false,false,false,--.--,--.--,--.--,--.--,--.--,--.--,--.--,--.--,22.2341815,68.9617778,42QVK 96061 58748,100.0,100.0,319.8,1,0,--.--,--.--,,--.--,--.--,--.--,0,0,--.--,--.--,0,-9.4,-7.4,0.0,0.1,0.1,-0.1,--.--,--.--,--.--,--.--,--.--,--.--,--.--,--.--,--.--,--.--,--.--,--.--,62.88,21.06,--.--,0,0,0.1,0.1,0.1,0,1,0,--.--,--.--,--.--
2023-01-16 12:17:35.990,2.1,6.8,271,0.0,0.0,0.0,0.1,0.0,0.000,-0.2,-0.2,-0.1,-0.050,-0.199,0.000,0.0,00:00:17,0.3,0,--.--,--.--,--.--,50,0000:00:00,90,0,50,50,50,0,0,3.66,0,0,0,15.51,0.90,3728,--.--,79,--.--,--:--:--,1,13.96,12:17:35,16/01/23,--.--,--.--,--.--,--.--,--.--,--.--,--.--,--.--,--.--,3.66,--.--,7.00,0,0.000,0.000,0.000,0.000,0.000,0.000,0.000,0.000,0.000,0.000,0.000,0.000,false,false,false,false,false,false,false,false,false,false,false,false,--.--,--.--,--.--,--.--,--.--,--.--,--.--,--.--,22.2341815,68.9617778,42QVK 96061 58748,100.0,100.0,319.8,1,0,--.--,--.--,,--.--,--.--,--.--,0,0,--.--,--.--,0,-9.4,-7.4,0.2,0.0,-0.1,0.2,--.--,--.--,--.--,--.--,--.--,--.--,--.--,--.--,--.--,--.--,--.--,--.--,62.88,21.06,--.--,0,0,0.0,0.0,0.0,0,1,0,--.--,--.--,--.--
2023-01-16 12:17:36.995,2.5,9.5,272,0.0,0.0,0.0,0.1,0.0,0.000,0.1,-0.1,-0.1,-0.040,-0.210,0.000,0.0,00:00:18,0.3,0,--.--,--.--,--.--,50,0000:00:00,90,0,50,50,50,0,0,3.65,0,0,0,15.52,0.85,3728,--.--,79,--.--,--:--:--,1,13.19,12:17:36,16/01/23,--.--,--.--,--.--,--.--,--.--,--.--,--.--,--.--,--.--,3.65,--.--,7.00,0,0.000,0.000,0.000,0.000,0.000,0.000,0.000,0.000,0.000,0.000,0.000,0.000,false,false,false,false,false,false,false,false,false,false,false,false,--.--,--.--,--.--,--.--,--.--,--.--,--.--,--.--,22.2341815,68.9617778,42QVK 96061 58748,100.0,100.0,319.8,1,0,--.--,--.--,,--.--,--.--,--.--,0,0,--.--,--.--,0,-9.4,-7.4,0.1,-0.0,-0.0,-0.1,--.--,--.--,--.--,--.--,--.--,--.--,--.--,--.--,--.--,--.--,--.--,--.--,62.89,21.06,--.--,0,0,0.1,0.0,0.1,0,1,0,--.--,--.--,--.--
2023-01-16 12:17:37.988,2.5,9.2,271,0.0,0.0,0.0,0.1,0.0,0.000,-0.0,-0.0,-0.0,0.060,0.024,0.000,0.0,00:00:19,0.3,0,--.--,--.--,--.--,50,0000:00:00,90,0,50,50,50,0,0,3.84,0,0,0,15.51,0.84,3728,--.--,79,--.--,--:--:--,1,13.03,12:17:37,16/01/23,--.--,--.--,--.--,--.--,--.--,--.--,--.--,--.--,--.--,3.84,--.--,7.00,0,0.000,0.000,0.000,0.000,0.000,0.000,0.000,0.000,0.000,0.000,0.000,0.000,false,false,false,false,false,false,false,false,false,false,false,false,--.--,--.--,--.--,--.--,--.--,--.--,--.--,--.--,22.2341815,68.9617778,42QVK 96061 58748,100.0,100.0,319.8,1,0,--.--,--.--,,--.--,--.--,--.--,0,0,--.--,--.--,0,-9.4,-7.4,0.0,-0.0,0.1,0.0,--.--,--.--,--.--,--.--,--.--,--.--,--.--,--.--,--.--,--.--,--.--,--.--,62.89,21.06,--.--,0,0,0.0,0.0,0.0,0,1,0,--.--,--.--,--.--
2023-01-16 12:17:38.990,1.6,5.0,270,0.0,0.0,0.0,0.2,0.0,0.000,-0.1,-0.2,-0.2,-0.110,-0.329,0.000,0.0,00:00:20,0.4,0,--.--,--.--,--.--,50,0000:00:00,90,0,50,50,50,0,0,3.72,0,0,0,15.51,0.88,3728,--.--,79,--.--,--:--:--,1,13.65,12:17:38,16/01/23,--.--,--.--,--.--,--.--,--.--,--.--,--.--,--.--,--.--,3.72,--.--,7.00,0,0.000,0.000,0.000,0.000,0.000,0.000,0.000,0.000,0.000,0.000,0.000,0.000,false,false,false,false,false,false,false,false,false,false,false,false,--.--,--.--,--.--,--.--,--.--,--.--,--.--,--.--,22.2341815,68.9617778,42QVK 96061 58748,100.0,100.0,319.8,1,0,--.--,--.--,,--.--,--.--,--.--,0,0,--.--,--.--,0,-9.5,-7.4,0.2,-0.1,-0.2,0.1,--.--,--.--,--.--,--.--,--.--,--.--,--.--,--.--,--.--,--.--,--.--,--.--,62.89,21.05,--.--,0,0,0.0,0.0,0.0,0,1,0,--.--,--.--,--.--
2023-01-16 12:17:39.989,2.1,10.6,269,0.0,0.0,0.0,0.1,0.0,0.000,0.1,-0.1,-0.1,0.000,-0.125,0.000,0.0,00:00:21,0.5,0,--.--,--.--,--.--,50,0000:00:00,90,0,50,50,50,0,0,3.61,0,0,0,15.51,0.86,3729,--.--,79,--.--,--:--:--,1,13.34,12:17:39,16/01/23,--.--,--.--,--.--,--.--,--.--,--.--,--.--,--.--,--.--,3.61,--.--,7.00,0,0.000,0.000,0.000,0.000,0.000,0.000,0.000,0.000,0.000,0.000,0.000,0.000,false,false,false,false,false,false,false,false,false,false,false,false,--.--,--.--,--.--,--.--,--.--,--.--,--.--,--.--,22.2341815,68.9617778,42QVK 96061 58748,100.0,100.0,319.8,1,0,--.--,--.--,,--.--,--.--,--.--,0,0,--.--,--.--,0,-9.6,-7.4,0.1,-0.1,0.0,-0.1,--.--,--.--,--.--,--.--,--.--,--.--,--.--,--.--,--.--,--.--,--.--,--.--,62.90,21.05,--.--,0,0,0.0,0.0,0.0,0,1,0,--.--,--.--,--.--
2023-01-16 12:17:40.988,2.3,6.1,268,0.0,0.0,0.0,0.1,0.0,0.000,0.1,-0.1,-0.1,0.020,-0.061,0.000,0.0,00:00:22,0.6,0,--.--,--.--,--.--,50,0000:00:00,90,0,50,50,50,0,0,3.65,0,0,0,15.51,0.84,3729,--.--,79,--.--,--:--:--,1,13.03,12:17:40,16/01/23,--.--,--.--,--.--,--.--,--.--,--.--,--.--,--.--,--.--,3.65,--.--,7.00,0,0.000,0.000,0.000,0.000,0.000,0.000,0.000,0.000,0.000,0.000,0.000,0.000,false,false,false,false,false,false,false,false,false,false,false,false,--.--,--.--,--.--,--.--,--.--,--.--,--.--,--.--,22.2341815,68.9617778,42QVK 96061 58748,100.0,100.0,319.8,1,0,--.--,--.--,,--.--,--.--,--.--,0,0,--.--,--.--,0,-9.7,-7.5,0.1,-0.1,-0.1,-0.1,--.--,--.--,--.--,--.--,--.--,--.--,--.--,--.--,--.--,--.--,--.--,--.--,62.90,21.06,--.--,0,0,0.0,0.1,0.0,0,1,0,--.--,--.--,--.--
2023-01-16 12:17:41.989,2.8,8.8,268,0.0,0.0,0.0,0.1,0.0,0.000,0.0,-0.0,-0.0,0.070,0.031,0.000,0.0,00:00:23,0.7,0,--.--,--.--,--.--,50,0000:00:00,90,0,50,50,50,0,0,3.70,0,0,0,15.51,0.86,3729,--.--,79,--.--,--:--:--,1,13.34,12:17:41,16/01/23,--.--,--.--,--.--,--.--,--.--,--.--,--.--,--.--,--.--,3.70,--.--,7.00,0,0.000,0.000,0.000,0.000,0.000,0.000,0.000,0.000,0.000,0.000,0.000,0.000,false,false,false,false,false,false,false,false,false,false,false,false,--.--,--.--,--.--,--.--,--.--,--.--,--.--,--.--,22.2341815,68.9617778,42QVK 96061 58748,100.0,100.0,319.8,1,0,--.--,--.--,,--.--,--.--,--.--,0,0,--.--,--.--,0,-9.8,-7.5,0.0,-0.1,-0.0,-0.0,--.--,--.--,--.--,--.--,--.--,--.--,--.--,--.--,--.--,--.--,--.--,--.--,62.90,21.05,--.--,0,0,0.0,0.0,0.0,0,1,0,--.--,--.--,--.--
2023-01-16 12:17:42.992,3.3,4.8,268,0.0,0.0,0.0,0.0,0.0,0.000,-0.0,-0.1,-0.1,-0.010,-0.128,0.000,0.0,00:00:24,0.7,0,--.--,--.--,--.--,50,0000:00:00,90,0,50,50,50,0,0,3.64,0,0,0,15.51,0.90,3729,--.--,79,--.--,--:--:--,1,13.96,12:17:42,16/01/23,--.--,--.--,--.--,--.--,--.--,--.--,--.--,--.--,--.--,3.64,--.--,7.00,0,0.000,0.000,0.000,0.000,0.000,0.000,0.000,0.000,0.000,0.000,0.000,0.000,false,false,false,false,false,false,false,false,false,false,false,false,--.--,--.--,--.--,--.--,--.--,--.--,--.--,--.--,22.2341815,68.9617778,42QVK 96061 58748,100.0,100.0,319.8,1,0,--.--,--.--,,--.--,--.--,--.--,0,0,--.--,--.--,0,-9.8,-7.5,0.1,0.0,0.0,-0.0,--.--,--.--,--.--,--.--,--.--,--.--,--.--,--.--,--.--,--.--,--.--,--.--,62.91,21.06,--.--,0,0,0.0,0.0,0.0,0,1,0,--.--,--.--,--.--
2023-01-16 12:17:43.990,1.5,5.7,269,0.0,0.0,0.0,0.1,0.0,0.000,0.0,-0.1,-0.1,0.000,-0.101,0.000,0.0,00:00:25,0.8,0,--.--,--.--,--.--,50,0000:00:00,90,0,50,50,50,0,0,3.62,0,0,0,15.51,0.83,3730,--.--,79,--.--,--:--:--,1,12.88,12:17:43,16/01/23,--.--,--.--,--.--,--.--,--.--,--.--,--.--,--.--,--.--,3.62,--.--,7.00,0,0.000,0.000,0.000,0.000,0.000,0.000,0.000,0.000,0.000,0.000,0.000,0.000,false,false,false,false,false,false,false,false,false,false,false,false,--.--,--.--,--.--,--.--,--.--,--.--,--.--,--.--,22.2341815,68.9617778,42QVK 96061 58748,100.0,100.0,319.8,1,0,--.--,--.--,,--.--,--.--,--.--,0,0,--.--,--.--,0,-9.9,-7.5,0.1,-0.1,-0.0,-0.0,--.--,--.--,--.--,--.--,--.--,--.--,--.--,--.--,--.--,--.--,--.--,--.--,62.90,21.06,--.--,0,0,0.0,0.1,0.0,0,1,0,--.--,--.--,--.--
2023-01-16 12:17:44.992,1.8,7.9,270,0.0,0.0,0.0,0.0,0.0,0.000,-0.1,-0.1,-0.1,-0.040,-0.172,0.000,0.0,00:00:26,0.8,0,--.--,--.--,--.--,50,0000:00:00,90,0,50,50,50,0,0,3.81,0,0,0,15.51,0.83,3730,--.--,79,--.--,--:--:--,1,12.88,12:17:44,16/01/23,--.--,--.--,--.--,--.--,--.--,--.--,--.--,--.--,--.--,3.81,--.--,7.00,0,0.000,0.000,0.000,0.000,0.000,0.000,0.000,0.000,0.000,0.000,0.000,0.000,false,false,false,false,false,false,false,false,false,false,false,false,--.--,--.--,--.--,--.--,--.--,--.--,--.--,--.--,22.2341815,68.9617778,42QVK 96061 58748,100.0,100.0,319.8,1,0,--.--,--.--,,--.--,--.--,--.--,0,0,--.--,--.--,0,-9.9,-7.6,0.1,-0.0,-0.0,0.1,--.--,--.--,--.--,--.--,--.--,--.--,--.--,--.--,--.--,--.--,--.--,--.--,62.91,21.07,--.--,0,0,0.0,0.0,0.1,0,1,0,--.--,--.--,--.--
2023-01-16 12:17:45.993,3.5,9.7,271,0.0,0.0,0.0,0.0,0.0,0.000,0.2,-0.1,-0.1,0.020,-0.083,0.000,0.0,00:00:27,0.8,0,--.--,--.--,--.--,50,0000:00:00,90,0,50,50,50,0,0,3.65,0,0,0,15.51,0.89,3730,--.--,79,--.--,--:--:--,1,13.80,12:17:45,16/01/23,--.--,--.--,--.--,--.--,--.--,--.--,--.--,--.--,--.--,3.65,--.--,7.00,0,0.000,0.000,0.000,0.000,0.000,0.000,0.000,0.000,0.000,0.000,0.000,0.000,false,false,false,false,false,false,false,false,false,false,false,false,--.--,--.--,--.--,--.--,--.--,--.--,--.--,--.--,22.2341815,68.9617778,42QVK 96061 58748,100.0,100.0,319.8,1,0,--.--,--.--,,--.--,--.--,--.--,0,0,--.--,--.--,0,-9.9,-7.6,0.1,0.0,0.0,-0.2,--.--,--.--,--.--,--.--,--.--,--.--,--.--,--.--,--.--,--.--,--.--,--.--,62.91,21.06,--.--,0,0,0.1,0.1,0.1,0,1,0,--.--,--.--,--.--
2023-01-16 12:17:46.989,2.0,7.8,272,0.0,0.0,0.0,0.0,0.0,0.000,0.0,-0.1,-0.1,0.020,-0.069,0.000,0.0,00:00:28,0.8,0,--.--,--.--,--.--,50,0000:00:00,90,0,50,50,50,0,0,3.73,0,0,0,15.51,0.86,3730,--.--,79,--.--,--:--:--,1,13.34,12:17:46,16/01/23,--.--,--.--,--.--,--.--,--.--,--.--,--.--,--.--,--.--,3.73,--.--,7.00,0,0.000,0.000,0.000,0.000,0.000,0.000,0.000,0.000,0.000,0.000,0.000,0.000,false,false,false,false,false,false,false,false,false,false,false,false,--.--,--.--,--.--,--.--,--.--,--.--,--.--,--.--,22.2341815,68.9617778,42QVK 96061 58748,100.0,100.0,319.8,1,0,--.--,--.--,,--.--,--.--,--.--,0,0,--.--,--.--,0,-9.8,-7.6,0.1,0.0,-0.0,-0.0,--.--,--.--,--.--,--.--,--.--,--.--,--.--,--.--,--.--,--.--,--.--,--.--,62.91,21.06,--.--,0,0,0.0,0.0,0.0,0,1,0,--.--,--.--,--.--
2023-01-16 12:17:47.989,1.4,9.8,272,0.0,0.0,0.0,0.1,0.0,0.000,-0.1,-0.1,-0.1,-0.020,-0.138,0.000,0.0,00:00:29,0.8,0,--.--,--.--,--.--,50,0000:00:00,90,0,50,50,50,0,0,3.76,0,0,0,15.51,0.82,3730,--.--,79,--.--,--:--:--,1,12.72,12:17:47,16/01/23,--.--,--.--,--.--,--.--,--.--,--.--,--.--,--.--,--.--,3.76,--.--,7.00,0,0.000,0.000,0.000,0.000,0.000,0.000,0.000,0.000,0.000,0.000,0.000,0.000,false,false,false,false,false,false,false,false,false,false,false,false,--.--,--.--,--.--,--.--,--.--,--.--,--.--,--.--,22.2341815,68.9617778,42QVK 96061 58748,100.0,100.0,319.8,1,0,--.--,--.--,,--.--,--.--,--.--,0,0,--.--,--.--,0,-9.8,-7.6,0.1,-0.0,0.1,0.1,--.--,--.--,--.--,--.--,--.--,--.--,--.--,--.--,--.--,--.--,--.--,--.--,62.92,21.06,--.--,0,0,0.0,0.0,0.0,0,1,0,--.--,--.--,--.--
2023-01-16 12:17:48.989,1.3,7.4,273,0.0,0.0,0.0,0.1,0.0,0.000,-0.1,-0.2,-0.2,-0.070,-0.232,0.000,0.0,00:00:30,0.7,0,--.--,--.--,--.--,50,0000:00:00,90,0,50,50,50,0,0,3.57,0,0,0,15.51,0.86,3731,--.--,79,--.--,--:--:--,1,13.34,12:17:48,16/01/23,--.--,--.--,--.--,--.--,--.--,--.--,--.--,--.--,--.--,3.57,--.--,7.00,0,0.000,0.000,0.000,0.000,0.000,0.000,0.000,0.000,0.000,0.000,0.000,0.000,false,false,false,false,false,false,false,false,false,false,false,false,--.--,--.--,--.--,--.--,--.--,--.--,--.--,--.--,22.2341815,68.9617778,42QVK 96061 58748,100.0,100.0,319.8,1,0,--.--,--.--,,--.--,--.--,--.--,0,0,--.--,--.--,0,-9.8,-7.5,0.2,-0.1,-0.0,0.1,--.--,--.--,--.--,--.--,--.--,--.--,--.--,--.--,--.--,--.--,--.--,--.--,62.92,21.06,--.--,0,0,0.0,0.0,0.1,0,1,0,--.--,--.--,--.--
2023-01-16 12:17:49.989,1.9,9.2,273,0.0,0.0,0.0,0.1,0.0,0.000,0.1,-0.1,-0.1,-0.030,-0.176,0.000,0.0,00:00:31,0.8,0,--.--,--.--,--.--,50,0000:00:00,90,0,50,50,50,0,0,3.64,0,0,0,15.51,0.91,3731,--.--,79,--.--,--:--:--,1,14.11,12:17:49,16/01/23,--.--,--.--,--.--,--.--,--.--,--.--,--.--,--.--,--.--,3.64,--.--,7.00,0,0.000,0.000,0.000,0.000,0.000,0.000,0.000,0.000,0.000,0.000,0.000,0.000,false,false,false,false,false,false,false,false,false,false,false,false,--.--,--.--,--.--,--.--,--.--,--.--,--.--,--.--,22.2341815,68.9617778,42QVK 96061 58748,100.0,100.0,319.8,1,0,--.--,--.--,,--.--,--.--,--.--,0,0,--.--,--.--,0,-9.9,-7.5,0.1,-0.1,-0.0,-0.1,--.--,--.--,--.--,--.--,--.--,--.--,--.--,--.--,--.--,--.--,--.--,--.--,62.92,21.06,--.--,0,0,0.0,0.0,0.0,0,1,0,--.--,--.--,--.--
2023-01-16 12:17:50.991,2.8,10.2,274,0.0,0.0,0.0,0.1,0.0,0.000,-0.0,-0.1,-0.1,0.010,-0.070,0.000,0.0,00:00:32,0.8,0,--.--,--.--,--.--,50,0000:00:00,90,0,50,50,50,0,0,3.73,0,0,0,15.51,0.87,3731,--.--,79,--.--,--:--:--,1,13.49,12:17:50,16/01/23,--.--,--.--,--.--,--.--,--.--,--.--,--.--,--.--,--.--,3.73,--.--,7.00,0,0.000,0.000,0.000,0.000,0.000,0.000,0.000,0.000,0.000,0.000,0.000,0.000,false,false,false,false,false,false,false,false,false,false,false,false,--.--,--.--,--.--,--.--,--.--,--.--,--.--,--.--,22.2341815,68.9617778,42QVK 96061 58748,100.0,100.0,319.8,1,0,--.--,--.--,,--.--,--.--,--.--,0,0,--.--,--.--,0,-9.9,-7.5,0.1,0.0,0.1,0.0,--.--,--.--,--.--,--.--,--.--,--.--,--.--,--.--,--.--,--.--,--.--,--.--,62.92,21.05,--.--,0,0,0.0,0.0,0.1,0,1,0,--.--,--.--,--.--
2023-01-16 12:17:51.999,1.9,7.1,274,0.0,0.0,0.0,0.1,0.0,0.000,-0.0,-0.1,-0.1,0.000,-0.106,0.000,0.0,00:00:33,0.9,0,--.--,--.--,--.--,50,0000:00:00,90,0,50,50,50,0,0,3.71,0,0,0,15.51,0.97,3731,--.--,79,--.--,--:--:--,1,15.04,12:17:51,16/01/23,--.--,--.--,--.--,--.--,--.--,--.--,--.--,--.--,--.--,3.71,--.--,7.00,0,0.000,0.000,0.000,0.000,0.000,0.000,0.000,0.000,0.000,0.000,0.000,0.000,false,false,false,false,false,false,false,false,false,false,false,false,--.--,--.--,--.--,--.--,--.--,--.--,--.--,--.--,22.2341815,68.9617778,42QVK 96061 58748,100.0,100.0,319.8,1,0,--.--,--.--,,--.--,--.--,--.--,0,0,--.--,--.--,0,-10.0,-7.6,0.1,-0.1,-0.0,0.0,--.--,--.--,--.--,--.--,--.--,--.--,--.--,--.--,--.--,--.--,--.--,--.--,62.92,21.06,--.--,0,0,0.0,0.0,0.0,0,1,0,--.--,--.--,--.--
2023-01-16 12:17:52.988,1.9,7.1,274,0.0,0.0,0.0,0.1,0.0,0.000,-0.0,-0.1,-0.1,0.000,-0.106,0.000,0.0,00:00:34,0.9,0,--.--,--.--,--.--,50,0000:00:00,90,0,50,50,50,0,0,3.71,0,0,0,15.51,0.97,3731,--.--,79,--.--,--:--:--,1,15.04,12:17:52,16/01/23,--.--,--.--,--.--,--.--,--.--,--.--,--.--,--.--,--.--,3.71,--.--,7.00,0,0.000,0.000,0.000,0.000,0.000,0.000,0.000,0.000,0.000,0.000,0.000,0.000,false,false,false,false,false,false,false,false,false,false,false,false,--.--,--.--,--.--,--.--,--.--,--.--,--.--,--.--,22.2341815,68.9617778,42QVK 96061 58748,100.0,100.0,319.8,1,0,--.--,--.--,,--.--,--.--,--.--,0,0,--.--,--.--,0,-10.0,-7.6,0.1,-0.1,-0.0,0.0,--.--,--.--,--.--,--.--,--.--,--.--,--.--,--.--,--.--,--.--,--.--,--.--,62.92,21.06,--.--,0,0,0.0,0.0,0.0,0,1,0,--.--,--.--,--.--
2023-01-16 12:17:53.992,1.9,7.1,274,0.0,0.0,0.0,0.1,0.0,0.000,-0.0,-0.1,-0.1,0.000,-0.106,0.000,0.0,00:00:35,0.9,0,--.--,--.--,--.--,50,0000:00:00,90,0,50,50,50,0,0,3.71,0,0,0,15.51,0.97,3731,--.--,79,--.--,--:--:--,1,15.04,12:17:53,16/01/23,--.--,--.--,--.--,--.--,--.--,--.--,--.--,--.--,--.--,3.71,--.--,7.00,0,0.000,0.000,0.000,0.000,0.000,0.000,0.000,0.000,0.000,0.000,0.000,0.000,false,false,false,false,false,false,false,false,false,false,false,false,--.--,--.--,--.--,--.--,--.--,--.--,--.--,--.--,22.2341815,68.9617778,42QVK 96061 58748,100.0,100.0,319.8,1,0,--.--,--.--,,--.--,--.--,--.--,0,0,--.--,--.--,0,-10.0,-7.6,0.1,-0.1,-0.0,0.0,--.--,--.--,--.--,--.--,--.--,--.--,--.--,--.--,--.--,--.--,--.--,--.--,62.92,21.06,--.--,0,0,0.0,0.0,0.0,0,1,0,--.--,--.--,--.--
2023-01-16 12:17:54.999,1.9,7.1,274,0.0,0.0,0.0,0.1,0.0,0.000,-0.0,-0.1,-0.1,0.000,-0.106,0.000,0.0,00:00:36,0.9,0,--.--,--.--,--.--,50,0000:00:00,90,0,50,50,50,0,0,3.71,0,0,0,15.51,0.97,3731,--.--,79,--.--,--:--:--,1,15.04,12:17:54,16/01/23,--.--,--.--,--.--,--.--,--.--,--.--,--.--,--.--,--.--,3.71,--.--,7.00,0,0.000,0.000,0.000,0.000,0.000,0.000,0.000,0.000,0.000,0.000,0.000,0.000,false,false,false,false,false,false,false,false,false,false,false,false,--.--,--.--,--.--,--.--,--.--,--.--,--.--,--.--,22.2341815,68.9617778,42QVK 96061 58748,100.0,100.0,319.8,1,0,--.--,--.--,,--.--,--.--,--.--,0,0,--.--,--.--,0,-10.0,-7.6,0.1,-0.1,-0.0,0.0,--.--,--.--,--.--,--.--,--.--,--.--,--.--,--.--,--.--,--.--,--.--,--.--,62.92,21.06,--.--,0,0,0.0,0.0,0.0,0,1,0,--.--,--.--,--.--
2023-01-16 12:17:55.991,1.9,7.1,274,0.0,0.0,0.0,0.1,0.0,0.000,-0.0,-0.1,-0.1,0.000,-0.106,0.000,0.0,00:00:37,0.9,0,--.--,--.--,--.--,50,0000:00:00,90,0,50,50,50,0,0,3.71,0,0,0,15.51,0.97,3731,--.--,79,--.--,--:--:--,1,15.04,12:17:55,16/01/23,--.--,--.--,--.--,--.--,--.--,--.--,--.--,--.--,--.--,3.71,--.--,7.00,0,0.000,0.000,0.000,0.000,0.000,0.000,0.000,0.000,0.000,0.000,0.000,0.000,false,false,false,false,false,false,false,false,false,false,false,false,--.--,--.--,--.--,--.--,--.--,--.--,--.--,--.--,22.2341815,68.9617778,42QVK 96061 58748,100.0,100.0,319.8,1,0,--.--,--.--,,--.--,--.--,--.--,0,0,--.--,--.--,0,-10.0,-7.6,0.1,-0.1,-0.0,0.0,--.--,--.--,--.--,--.--,--.--,--.--,--.--,--.--,--.--,--.--,--.--,--.--,62.92,21.06,--.--,0,0,0.0,0.0,0.0,0,1,0,--.--,--.--,--.--
2023-01-16 12:17:56.990,1.9,7.1,274,0.0,0.0,0.0,0.1,0.0,0.000,-0.0,-0.1,-0.1,0.000,-0.106,0.000,0.0,00:00:38,0.9,0,--.--,--.--,--.--,50,0000:00:00,90,0,50,50,50,0,0,3.71,0,0,0,15.51,0.97,3731,--.--,79,--.--,--:--:--,1,15.04,12:17:56,16/01/23,--.--,--.--,--.--,--.--,--.--,--.--,--.--,--.--,--.--,3.71,--.--,7.00,0,0.000,0.000,0.000,0.000,0.000,0.000,0.000,0.000,0.000,0.000,0.000,0.000,false,false,false,false,false,false,false,false,false,false,false,false,--.--,--.--,--.--,--.--,--.--,--.--,--.--,--.--,22.2341815,68.9617778,42QVK 96061 58748,100.0,100.0,319.8,1,0,--.--,--.--,,--.--,--.--,--.--,0,0,--.--,--.--,0,-10.0,-7.6,0.1,-0.1,-0.0,0.0,--.--,--.--,--.--,--.--,--.--,--.--,--.--,--.--,--.--,--.--,--.--,--.--,62.92,21.06,--.--,0,0,0.0,0.0,0.0,0,1,0,--.--,--.--,--.--
2023-01-16 12:17:57.991,1.9,7.1,274,0.0,0.0,0.0,0.1,0.0,0.000,-0.0,-0.1,-0.1,0.000,-0.106,0.000,0.0,00:00:39,0.9,0,--.--,--.--,--.--,50,0000:00:00,90,0,50,50,50,0,0,3.71,0,0,0,15.51,0.97,3731,--.--,79,--.--,--:--:--,1,15.04,12:17:57,16/01/23,--.--,--.--,--.--,--.--,--.--,--.--,--.--,--.--,--.--,3.71,--.--,7.00,0,0.000,0.000,0.000,0.000,0.000,0.000,0.000,0.000,0.000,0.000,0.000,0.000,false,false,false,false,false,false,false,false,false,false,false,false,--.--,--.--,--.--,--.--,--.--,--.--,--.--,--.--,22.2341815,68.9617778,42QVK 96061 58748,100.0,100.0,319.8,1,0,--.--,--.--,,--.--,--.--,--.--,0,0,--.--,--.--,0,-10.0,-7.6,0.1,-0.1,-0.0,0.0,--.--,--.--,--.--,--.--,--.--,--.--,--.--,--.--,--.--,--.--,--.--,--.--,62.92,21.06,--.--,0,0,0.0,0.0,0.0,0,1,0,--.--,--.--,--.--
2023-01-16 12:17:59.000,1.9,7.1,274,0.0,0.0,0.0,0.1,0.0,0.000,-0.0,-0.1,-0.1,0.000,-0.106,0.000,0.0,00:00:40,0.9,0,--.--,--.--,--.--,50,0000:00:00,90,0,50,50,50,0,0,3.71,0,0,0,15.51,0.97,3731,--.--,79,--.--,--:--:--,1,15.04,12:17:59,16/01/23,--.--,--.--,--.--,--.--,--.--,--.--,--.--,--.--,--.--,3.71,--.--,7.00,0,0.000,0.000,0.000,0.000,0.000,0.000,0.000,0.000,0.000,0.000,0.000,0.000,false,false,false,false,false,false,false,false,false,false,false,false,--.--,--.--,--.--,--.--,--.--,--.--,--.--,--.--,22.2341815,68.9617778,42QVK 96061 58748,100.0,100.0,319.8,1,0,--.--,--.--,,--.--,--.--,--.--,0,0,--.--,--.--,0,-10.0,-7.6,0.1,-0.1,-0.0,0.0,--.--,--.--,--.--,--.--,--.--,--.--,--.--,--.--,--.--,--.--,--.--,--.--,62.92,21.06,--.--,0,0,0.0,0.0,0.0,0,1,0,--.--,--.--,--.--
2023-01-16 12:17:59.999,1.9,7.1,274,0.0,0.0,0.0,0.1,0.0,0.000,-0.0,-0.1,-0.1,0.000,-0.106,0.000,0.0,00:00:41,0.9,0,--.--,--.--,--.--,50,0000:00:00,90,0,50,50,50,0,0,3.71,0,0,0,15.51,0.97,3731,--.--,79,--.--,--:--:--,1,15.04,12:17:59,16/01/23,--.--,--.--,--.--,--.--,--.--,--.--,--.--,--.--,--.--,3.71,--.--,7.00,0,0.000,0.000,0.000,0.000,0.000,0.000,0.000,0.000,0.000,0.000,0.000,0.000,false,false,false,false,false,false,false,false,false,false,false,false,--.--,--.--,--.--,--.--,--.--,--.--,--.--,--.--,22.2341815,68.9617778,42QVK 96061 58748,100.0,100.0,319.8,1,0,--.--,--.--,,--.--,--.--,--.--,0,0,--.--,--.--,0,-10.0,-7.6,0.1,-0.1,-0.0,0.0,--.--,--.--,--.--,--.--,--.--,--.--,--.--,--.--,--.--,--.--,--.--,--.--,62.92,21.06,--.--,0,0,0.0,0.0,0.0,0,1,0,--.--,--.--,--.--
2023-01-16 12:18:00.992,1.9,7.1,274,0.0,0.0,0.0,0.1,0.0,0.000,-0.0,-0.1,-0.1,0.000,-0.106,0.000,0.0,00:00:42,0.9,0,--.--,--.--,--.--,50,0000:00:00,90,0,50,50,50,0,0,3.71,0,0,0,15.51,0.97,3731,--.--,79,--.--,--:--:--,1,15.04,12:18:00,16/01/23,--.--,--.--,--.--,--.--,--.--,--.--,--.--,--.--,--.--,3.71,--.--,7.00,0,0.000,0.000,0.000,0.000,0.000,0.000,0.000,0.000,0.000,0.000,0.000,0.000,false,false,false,false,false,false,false,false,false,false,false,false,--.--,--.--,--.--,--.--,--.--,--.--,--.--,--.--,22.2341815,68.9617778,42QVK 96061 58748,100.0,100.0,319.8,1,0,--.--,--.--,,--.--,--.--,--.--,0,0,--.--,--.--,0,-10.0,-7.6,0.1,-0.1,-0.0,0.0,--.--,--.--,--.--,--.--,--.--,--.--,--.--,--.--,--.--,--.--,--.--,--.--,62.92,21.06,--.--,0,0,0.0,0.0,0.0,0,1,0,--.--,--.--,--.--
2023-01-16 12:18:02.000,1.9,7.1,274,0.0,0.0,0.0,0.1,0.0,0.000,-0.0,-0.1,-0.1,0.000,-0.106,0.000,0.0,00:00:43,0.9,0,--.--,--.--,--.--,50,0000:00:00,90,0,50,50,50,0,0,3.71,0,0,0,15.51,0.97,3731,--.--,79,--.--,--:--:--,1,15.04,12:18:02,16/01/23,--.--,--.--,--.--,--.--,--.--,--.--,--.--,--.--,--.--,3.71,--.--,7.00,0,0.000,0.000,0.000,0.000,0.000,0.000,0.000,0.000,0.000,0.000,0.000,0.000,false,false,false,false,false,false,false,false,false,false,false,false,--.--,--.--,--.--,--.--,--.--,--.--,--.--,--.--,22.2341815,68.9617778,42QVK 96061 58748,100.0,100.0,319.8,1,0,--.--,--.--,,--.--,--.--,--.--,0,0,--.--,--.--,0,-10.0,-7.6,0.1,-0.1,-0.0,0.0,--.--,--.--,--.--,--.--,--.--,--.--,--.--,--.--,--.--,--.--,--.--,--.--,62.92,21.06,--.--,0,0,0.0,0.0,0.0,0,1,0,--.--,--.--,--.--
2023-01-16 12:18:02.998,1.9,7.1,274,0.0,0.0,0.0,0.1,0.0,0.000,-0.0,-0.1,-0.1,0.000,-0.106,0.000,0.0,00:00:44,0.9,0,--.--,--.--,--.--,50,0000:00:00,90,0,50,50,50,0,0,3.71,0,0,0,15.51,0.97,3731,--.--,79,--.--,--:--:--,1,15.04,12:18:02,16/01/23,--.--,--.--,--.--,--.--,--.--,--.--,--.--,--.--,--.--,3.71,--.--,7.00,0,0.000,0.000,0.000,0.000,0.000,0.000,0.000,0.000,0.000,0.000,0.000,0.000,false,false,false,false,false,false,false,false,false,false,false,false,--.--,--.--,--.--,--.--,--.--,--.--,--.--,--.--,22.2341815,68.9617778,42QVK 96061 58748,100.0,100.0,319.8,1,0,--.--,--.--,,--.--,--.--,--.--,0,0,--.--,--.--,0,-10.0,-7.6,0.1,-0.1,-0.0,0.0,--.--,--.--,--.--,--.--,--.--,--.--,--.--,--.--,--.--,--.--,--.--,--.--,62.92,21.06,--.--,0,0,0.0,0.0,0.0,0,1,0,--.--,--.--,--.--
2023-01-16 12:18:04.000,1.9,7.1,274,0.0,0.0,0.0,0.1,0.0,0.000,-0.0,-0.1,-0.1,0.000,-0.106,0.000,0.0,00:00:45,0.9,0,--.--,--.--,--.--,50,0000:00:00,90,0,50,50,50,0,0,3.71,0,0,0,15.51,0.97,3731,--.--,79,--.--,--:--:--,1,15.04,12:18:04,16/01/23,--.--,--.--,--.--,--.--,--.--,--.--,--.--,--.--,--.--,3.71,--.--,7.00,0,0.000,0.000,0.000,0.000,0.000,0.000,0.000,0.000,0.000,0.000,0.000,0.000,false,false,false,false,false,false,false,false,false,false,false,false,--.--,--.--,--.--,--.--,--.--,--.--,--.--,--.--,22.2341815,68.9617778,42QVK 96061 58748,100.0,100.0,319.8,1,0,--.--,--.--,,--.--,--.--,--.--,0,0,--.--,--.--,0,-10.0,-7.6,0.1,-0.1,-0.0,0.0,--.--,--.--,--.--,--.--,--.--,--.--,--.--,--.--,--.--,--.--,--.--,--.--,62.92,21.06,--.--,0,0,0.0,0.0,0.0,0,1,0,--.--,--.--,--.--
2023-01-16 12:18:04.992,1.9,7.1,274,0.0,0.0,0.0,0.1,0.0,0.000,-0.0,-0.1,-0.1,0.000,-0.106,0.000,0.0,00:00:46,0.9,0,--.--,--.--,--.--,50,0000:00:00,90,0,50,50,50,0,0,3.71,0,0,0,15.51,0.97,3731,--.--,79,--.--,--:--:--,1,15.04,12:18:04,16/01/23,--.--,--.--,--.--,--.--,--.--,--.--,--.--,--.--,--.--,3.71,--.--,7.00,0,0.000,0.000,0.000,0.000,0.000,0.000,0.000,0.000,0.000,0.000,0.000,0.000,false,false,false,false,false,false,false,false,false,false,false,false,--.--,--.--,--.--,--.--,--.--,--.--,--.--,--.--,22.2341815,68.9617778,42QVK 96061 58748,100.0,100.0,319.8,1,0,--.--,--.--,,--.--,--.--,--.--,0,0,--.--,--.--,0,-10.0,-7.6,0.1,-0.1,-0.0,0.0,--.--,--.--,--.--,--.--,--.--,--.--,--.--,--.--,--.--,--.--,--.--,--.--,62.92,21.06,--.--,0,0,0.0,0.0,0.0,0,1,0,--.--,--.--,--.--
2023-01-16 12:18:06.001,1.9,7.1,274,0.0,0.0,0.0,0.1,0.0,0.000,-0.0,-0.1,-0.1,0.000,-0.106,0.000,0.0,00:00:47,0.9,0,--.--,--.--,--.--,50,0000:00:00,90,0,50,50,50,0,0,3.71,0,0,0,15.51,0.97,3731,--.--,79,--.--,--:--:--,1,15.04,12:18:06,16/01/23,--.--,--.--,--.--,--.--,--.--,--.--,--.--,--.--,--.--,3.71,--.--,7.00,0,0.000,0.000,0.000,0.000,0.000,0.000,0.000,0.000,0.000,0.000,0.000,0.000,false,false,false,false,false,false,false,false,false,false,false,false,--.--,--.--,--.--,--.--,--.--,--.--,--.--,--.--,22.2341815,68.9617778,42QVK 96061 58748,100.0,100.0,319.8,1,0,--.--,--.--,,--.--,--.--,--.--,0,0,--.--,--.--,0,-10.0,-7.6,0.1,-0.1,-0.0,0.0,--.--,--.--,--.--,--.--,--.--,--.--,--.--,--.--,--.--,--.--,--.--,--.--,62.92,21.06,--.--,0,0,0.0,0.0,0.0,0,1,0,--.--,--.--,--.--
2023-01-16 12:18:06.998,1.9,7.1,274,0.0,0.0,0.0,0.1,0.0,0.000,-0.0,-0.1,-0.1,0.000,-0.106,0.000,0.0,00:00:48,0.9,0,--.--,--.--,--.--,50,0000:00:00,90,0,50,50,50,0,0,3.71,0,0,0,15.51,0.97,3731,--.--,79,--.--,--:--:--,1,15.04,12:18:06,16/01/23,--.--,--.--,--.--,--.--,--.--,--.--,--.--,--.--,--.--,3.71,--.--,7.00,0,0.000,0.000,0.000,0.000,0.000,0.000,0.000,0.000,0.000,0.000,0.000,0.000,false,false,false,false,false,false,false,false,false,false,false,false,--.--,--.--,--.--,--.--,--.--,--.--,--.--,--.--,22.2341815,68.9617778,42QVK 96061 58748,100.0,100.0,319.8,1,0,--.--,--.--,,--.--,--.--,--.--,0,0,--.--,--.--,0,-10.0,-7.6,0.1,-0.1,-0.0,0.0,--.--,--.--,--.--,--.--,--.--,--.--,--.--,--.--,--.--,--.--,--.--,--.--,62.92,21.06,--.--,0,0,0.0,0.0,0.0,0,1,0,--.--,--.--,--.--
2023-01-16 12:18:08.000,1.9,7.1,274,0.0,0.0,0.0,0.1,0.0,0.000,-0.0,-0.1,-0.1,0.000,-0.106,0.000,0.0,00:00:49,0.9,0,--.--,--.--,--.--,50,0000:00:00,90,0,50,50,50,0,0,3.71,0,0,0,15.51,0.97,3731,--.--,79,--.--,--:--:--,1,15.04,12:18:08,16/01/23,--.--,--.--,--.--,--.--,--.--,--.--,--.--,--.--,--.--,3.71,--.--,7.00,0,0.000,0.000,0.000,0.000,0.000,0.000,0.000,0.000,0.000,0.000,0.000,0.000,false,false,false,false,false,false,false,false,false,false,false,false,--.--,--.--,--.--,--.--,--.--,--.--,--.--,--.--,22.2341815,68.9617778,42QVK 96061 58748,100.0,100.0,319.8,1,0,--.--,--.--,,--.--,--.--,--.--,0,0,--.--,--.--,0,-10.0,-7.6,0.1,-0.1,-0.0,0.0,--.--,--.--,--.--,--.--,--.--,--.--,--.--,--.--,--.--,--.--,--.--,--.--,62.92,21.06,--.--,0,0,0.0,0.0,0.0,0,1,0,--.--,--.--,--.--
2023-01-16 12:18:08.998,1.9,7.1,274,0.0,0.0,0.0,0.1,0.0,0.000,-0.0,-0.1,-0.1,0.000,-0.106,0.000,0.0,00:00:50,0.9,0,--.--,--.--,--.--,50,0000:00:00,90,0,50,50,50,0,0,3.71,0,0,0,15.51,0.97,3731,--.--,79,--.--,--:--:--,1,15.04,12:18:08,16/01/23,--.--,--.--,--.--,--.--,--.--,--.--,--.--,--.--,--.--,3.71,--.--,7.00,0,0.000,0.000,0.000,0.000,0.000,0.000,0.000,0.000,0.000,0.000,0.000,0.000,false,false,false,false,false,false,false,false,false,false,false,false,--.--,--.--,--.--,--.--,--.--,--.--,--.--,--.--,22.2341815,68.9617778,42QVK 96061 58748,100.0,100.0,319.8,1,0,--.--,--.--,,--.--,--.--,--.--,0,0,--.--,--.--,0,-10.0,-7.6,0.1,-0.1,-0.0,0.0,--.--,--.--,--.--,--.--,--.--,--.--,--.--,--.--,--.--,--.--,--.--,--.--,62.92,21.06,--.--,0,0,0.0,0.0,0.0,0,1,0,--.--,--.--,--.--
2023-01-16 12:18:09.999,1.9,7.1,274,0.0,0.0,0.0,0.1,0.0,0.000,-0.0,-0.1,-0.1,0.000,-0.106,0.000,0.0,00:00:51,0.9,0,--.--,--.--,--.--,50,0000:00:00,90,0,50,50,50,0,0,3.71,0,0,0,15.51,0.97,3731,--.--,79,--.--,--:--:--,1,15.04,12:18:09,16/01/23,--.--,--.--,--.--,--.--,--.--,--.--,--.--,--.--,--.--,3.71,--.--,7.00,0,0.000,0.000,0.000,0.000,0.000,0.000,0.000,0.000,0.000,0.000,0.000,0.000,false,false,false,false,false,false,false,false,false,false,false,false,--.--,--.--,--.--,--.--,--.--,--.--,--.--,--.--,22.2341815,68.9617778,42QVK 96061 58748,100.0,100.0,319.8,1,0,--.--,--.--,,--.--,--.--,--.--,0,0,--.--,--.--,0,-10.0,-7.6,0.1,-0.1,-0.0,0.0,--.--,--.--,--.--,--.--,--.--,--.--,--.--,--.--,--.--,--.--,--.--,--.--,62.92,21.06,--.--,0,0,0.0,0.0,0.0,0,1,0,--.--,--.--,--.--
2023-01-16 12:18:10.998,1.9,7.1,274,0.0,0.0,0.0,0.1,0.0,0.000,-0.0,-0.1,-0.1,0.000,-0.106,0.000,0.0,00:00:52,0.9,0,--.--,--.--,--.--,50,0000:00:00,90,0,50,50,50,0,0,3.71,0,0,0,15.51,0.97,3731,--.--,79,--.--,--:--:--,1,15.04,12:18:10,16/01/23,--.--,--.--,--.--,--.--,--.--,--.--,--.--,--.--,--.--,3.71,--.--,7.00,0,0.000,0.000,0.000,0.000,0.000,0.000,0.000,0.000,0.000,0.000,0.000,0.000,false,false,false,false,false,false,false,false,false,false,false,false,--.--,--.--,--.--,--.--,--.--,--.--,--.--,--.--,22.2341815,68.9617778,42QVK 96061 58748,100.0,100.0,319.8,1,0,--.--,--.--,,--.--,--.--,--.--,0,0,--.--,--.--,0,-10.0,-7.6,0.1,-0.1,-0.0,0.0,--.--,--.--,--.--,--.--,--.--,--.--,--.--,--.--,--.--,--.--,--.--,--.--,62.92,21.06,--.--,0,0,0.0,0.0,0.0,0,1,0,--.--,--.--,--.--
2023-01-16 12:18:11.999,1.9,7.1,274,0.0,0.0,0.0,0.1,0.0,0.000,-0.0,-0.1,-0.1,0.000,-0.106,0.000,0.0,00:00:53,0.9,0,--.--,--.--,--.--,50,0000:00:00,90,0,50,50,50,0,0,3.71,0,0,0,15.51,0.97,3731,--.--,79,--.--,--:--:--,1,15.04,12:18:11,16/01/23,--.--,--.--,--.--,--.--,--.--,--.--,--.--,--.--,--.--,3.71,--.--,7.00,0,0.000,0.000,0.000,0.000,0.000,0.000,0.000,0.000,0.000,0.000,0.000,0.000,false,false,false,false,false,false,false,false,false,false,false,false,--.--,--.--,--.--,--.--,--.--,--.--,--.--,--.--,22.2341815,68.9617778,42QVK 96061 58748,100.0,100.0,319.8,1,0,--.--,--.--,,--.--,--.--,--.--,0,0,--.--,--.--,0,-10.0,-7.6,0.1,-0.1,-0.0,0.0,--.--,--.--,--.--,--.--,--.--,--.--,--.--,--.--,--.--,--.--,--.--,--.--,62.92,21.06,--.--,0,0,0.0,0.0,0.0,0,1,0,--.--,--.--,--.--
2023-01-16 12:18:12.998,1.9,7.1,274,0.0,0.0,0.0,0.1,0.0,0.000,-0.0,-0.1,-0.1,0.000,-0.106,0.000,0.0,00:00:54,0.9,0,--.--,--.--,--.--,50,0000:00:00,90,0,50,50,50,0,0,3.71,0,0,0,15.51,0.97,3731,--.--,79,--.--,--:--:--,1,15.04,12:18:12,16/01/23,--.--,--.--,--.--,--.--,--.--,--.--,--.--,--.--,--.--,3.71,--.--,7.00,0,0.000,0.000,0.000,0.000,0.000,0.000,0.000,0.000,0.000,0.000,0.000,0.000,false,false,false,false,false,false,false,false,false,false,false,false,--.--,--.--,--.--,--.--,--.--,--.--,--.--,--.--,22.2341815,68.9617778,42QVK 96061 58748,100.0,100.0,319.8,1,0,--.--,--.--,,--.--,--.--,--.--,0,0,--.--,--.--,0,-10.0,-7.6,0.1,-0.1,-0.0,0.0,--.--,--.--,--.--,--.--,--.--,--.--,--.--,--.--,--.--,--.--,--.--,--.--,62.92,21.06,--.--,0,0,0.0,0.0,0.0,0,1,0,--.--,--.--,--.--
2023-01-16 12:18:13.995,1.9,7.1,274,0.0,0.0,0.0,0.1,0.0,0.000,-0.0,-0.1,-0.1,0.000,-0.106,0.000,0.0,00:00:55,0.9,0,--.--,--.--,--.--,50,0000:00:00,90,0,50,50,50,0,0,3.71,0,0,0,15.51,0.97,3731,--.--,79,--.--,--:--:--,1,15.04,12:18:13,16/01/23,--.--,--.--,--.--,--.--,--.--,--.--,--.--,--.--,--.--,3.71,--.--,7.00,0,0.000,0.000,0.000,0.000,0.000,0.000,0.000,0.000,0.000,0.000,0.000,0.000,false,false,false,false,false,false,false,false,false,false,false,false,--.--,--.--,--.--,--.--,--.--,--.--,--.--,--.--,22.2341815,68.9617778,42QVK 96061 58748,100.0,100.0,319.8,1,0,--.--,--.--,,--.--,--.--,--.--,0,0,--.--,--.--,0,-10.0,-7.6,0.1,-0.1,-0.0,0.0,--.--,--.--,--.--,--.--,--.--,--.--,--.--,--.--,--.--,--.--,--.--,--.--,62.92,21.06,--.--,0,0,0.0,0.0,0.0,0,1,0,--.--,--.--,--.--
2023-01-16 12:18:14.988,1.9,7.1,274,0.0,0.0,0.0,0.1,0.0,0.000,-0.0,-0.1,-0.1,0.000,-0.106,0.000,0.0,00:00:56,0.9,0,--.--,--.--,--.--,50,0000:00:00,90,0,50,50,50,0,0,3.71,0,0,0,15.51,0.97,3731,--.--,79,--.--,--:--:--,1,15.04,12:18:14,16/01/23,--.--,--.--,--.--,--.--,--.--,--.--,--.--,--.--,--.--,3.71,--.--,7.00,0,0.000,0.000,0.000,0.000,0.000,0.000,0.000,0.000,0.000,0.000,0.000,0.000,false,false,false,false,false,false,false,false,false,false,false,false,--.--,--.--,--.--,--.--,--.--,--.--,--.--,--.--,22.2341815,68.9617778,42QVK 96061 58748,100.0,100.0,319.8,1,0,--.--,--.--,,--.--,--.--,--.--,0,0,--.--,--.--,0,-10.0,-7.6,0.1,-0.1,-0.0,0.0,--.--,--.--,--.--,--.--,--.--,--.--,--.--,--.--,--.--,--.--,--.--,--.--,62.92,21.06,--.--,0,0,0.0,0.0,0.0,0,1,0,--.--,--.--,--.--
