Timestamp,roll,pitch,heading,rollRate,pitchRate,yawRate,groundSpeed,airSpeed,airSpeedSetpoint,climbRate,altitudeRelative,altitudeAMSL,altitudeTuning,altitudeTuningSetpoint,xTrackError,flightDistance,flightTime,distanceToHome,missionItemIndex,headingToNextWP,headingToHome,distanceToGCS,throttlePct,hobbs,apmSubInfo.cameraTilt,apmSubInfo.tetherTurns,apmSubInfo.lights1,apmSubInfo.lights2,apmSubInfo.pilotGain,apmSubInfo.inputHold,apmSubInfo.rollPitchToggle,apmSubInfo.rangefinderDistance,battery0.id,battery0.batteryFunction,battery0.batteryType,battery0.voltage,battery0.current,battery0.mahConsumed,battery0.temperature,battery0.percentRemaining,battery0.timeRemaining,battery0.timeRemainingStr,battery0.chargeState,battery0.instantPower,clock.currentTime,clock.currentDate,distanceSensor.rotationNone,distanceSensor.rotationYaw45,distanceSensor.rotationYaw90,distanceSensor.rotationYaw135,distanceSensor.rotationYaw180,distanceSensor.rotationYaw225,distanceSensor.rotationYaw270,distanceSensor.rotationYaw315,distanceSensor.rotationPitch90,distanceSensor.rotationPitch270,distanceSensor.minDistance,distanceSensor.maxDistance,escStatus.index,escStatus.rpm1,escStatus.rpm2,escStatus.rpm3,escStatus.rpm4,escStatus.current1,escStatus.current2,escStatus.current3,escStatus.current4,escStatus.voltage1,escStatus.voltage2,escStatus.voltage3,escStatus.voltage4,estimatorStatus.goodAttitudeEsimate,estimatorStatus.goodHorizVelEstimate,estimatorStatus.goodVertVelEstimate,estimatorStatus.goodHorizPosRelEstimate,estimatorStatus.goodHorizPosAbsEstimate,estimatorStatus.goodVertPosAbsEstimate,estimatorStatus.goodVertPosAGLEstimate,estimatorStatus.goodConstPosModeEstimate,estimatorStatus.goodPredHorizPosRelEstimate,estimatorStatus.goodPredHorizPosAbsEstimate,estimatorStatus.gpsGlitch,estimatorStatus.accelError,estimatorStatus.velRatio,estimatorStatus.horizPosRatio,estimatorStatus.vertPosRatio,estimatorStatus.magRatio,estimatorStatus.haglRatio,estimatorStatus.tasRatio,estimatorStatus.horizPosAccuracy,estimatorStatus.vertPosAccuracy,gps.lat,gps.lon,gps.mgrs,gps.hdop,gps.vdop,gps.courseOverGround,gps.lock,gps.count,gps2.lat,gps2.lon,gps2.mgrs,gps2.hdop,gps2.vdop,gps2.courseOverGround,gps2.lock,gps2.count,hygrometer.temperature,hygrometer.humidity,hygrometer.hygrometerid,localPosition.x,localPosition.y,localPosition.z,localPosition.vx,localPosition.vy,localPosition.vz,localPositionSetpoint.x,localPositionSetpoint.y,localPositionSetpoint.z,localPositionSetpoint.vx,localPositionSetpoint.vy,localPositionSetpoint.vz,setpoint.roll,setpoint.pitch,setpoint.yaw,setpoint.rollRate,setpoint.pitchRate,setpoint.yawRate,temperature.temperature1,temperature.temperature2,temperature.temperature3,terrain.blocksPending,terrain.blocksLoaded,vibration.xAxis,vibration.yAxis,vibration.zAxis,vibration.clipCount1,vibration.clipCount2,vibration.clipCount3,wind.direction,wind.speed,wind.verticalSpeed
2023-01-16 12:27:34.983,3.1,7.5,264,0.0,0.0,0.0,0.1,0.0,0.000,-0.0,-0.0,0.0,0.010,-0.007,0.000,0.0,00:00:00,0.0,0,--.--,0,0.0,50,0000:00:00,50,0,50,50,50,0,0,3.67,0,0,0,15.47,0.83,4,--.--,99,--.--,--:--:--,1,12.84,12:27:34,16/01/23,--.--,--.--,--.--,--.--,--.--,--.--,--.--,--.--,--.--,3.67,--.--,7.00,0,0.000,0.000,0.000,0.000,0.000,0.000,0.000,0.000,0.000,0.000,0.000,0.000,false,false,false,false,false,false,false,false,false,false,false,false,--.--,--.--,--.--,--.--,--.--,--.--,--.--,--.--,22.2341815,68.9617778,42QVK 96061 58748,100.0,100.0,319.8,1,0,--.--,--.--,,--.--,--.--,--.--,0,0,--.--,--.--,0,--.--,--.--,--.--,--.--,--.--,--.--,--.--,--.--,--.--,--.--,--.--,--.--,--.--,--.--,--.--,--.--,--.--,--.--,62.57,21.06,--.--,0,0,0.0,0.0,0.0,0,0,0,--.--,--.--,--.--
2023-01-16 12:27:35.983,2.2,3.9,263,0.0,0.0,0.0,0.4,0.0,0.000,0.0,-0.0,0.0,0.010,-0.015,0.000,0.0,00:00:01,0.0,0,--.--,0,0.0,50,0000:00:00,50,0,50,50,50,0,0,3.77,0,0,0,15.12,16.84,6,--.--,99,--.--,--:--:--,1,254.59,12:27:35,16/01/23,--.--,--.--,--.--,--.--,--.--,--.--,--.--,--.--,--.--,3.77,--.--,7.00,0,0.000,0.000,0.000,0.000,0.000,0.000,0.000,0.000,0.000,0.000,0.000,0.000,false,false,false,false,false,false,false,false,false,false,false,false,--.--,--.--,--.--,--.--,--.--,--.--,--.--,--.--,22.2341815,68.9617778,42QVK 96061 58748,100.0,100.0,319.8,1,0,--.--,--.--,,--.--,--.--,--.--,0,0,--.--,--.--,0,--.--,--.--,--.--,--.--,--.--,--.--,--.--,--.--,--.--,--.--,--.--,--.--,--.--,--.--,--.--,--.--,--.--,--.--,62.57,21.06,--.--,0,0,0.3,1.8,0.4,0,0,0,--.--,--.--,--.--
2023-01-16 12:27:36.982,-2.2,-0.6,261,0.0,0.0,0.0,0.2,0.0,0.000,0.1,0.0,0.0,0.010,0.020,0.000,0.0,00:00:02,0.0,0,--.--,0,0.0,50,0000:00:00,50,0,50,50,50,0,0,3.76,0,0,0,15.10,16.98,10,--.--,99,--.--,--:--:--,1,256.36,12:27:36,16/01/23,--.--,--.--,--.--,--.--,--.--,--.--,--.--,--.--,--.--,3.76,--.--,7.00,0,0.000,0.000,0.000,0.000,0.000,0.000,0.000,0.000,0.000,0.000,0.000,0.000,false,false,false,false,false,false,false,false,false,false,false,false,--.--,--.--,--.--,--.--,--.--,--.--,--.--,--.--,22.2341815,68.9617778,42QVK 96061 58748,100.0,100.0,319.8,1,0,--.--,--.--,,--.--,--.--,--.--,0,0,--.--,--.--,0,--.--,--.--,--.--,--.--,--.--,--.--,--.--,--.--,--.--,--.--,--.--,--.--,--.--,--.--,--.--,--.--,--.--,--.--,62.57,21.06,--.--,0,0,0.3,1.3,0.4,0,0,0,--.--,--.--,--.--
2023-01-16 12:27:37.983,-3.1,-2.1,262,0.0,0.0,0.0,0.4,0.0,0.000,-0.2,0.0,0.0,0.010,-0.002,0.000,0.0,00:00:03,0.0,0,--.--,0,0.0,50,0000:00:00,50,0,50,50,50,0,0,3.86,0,0,0,15.09,16.82,15,--.--,99,--.--,--:--:--,1,253.80,12:27:37,16/01/23,--.--,--.--,--.--,--.--,--.--,--.--,--.--,--.--,--.--,3.86,--.--,7.00,0,0.000,0.000,0.000,0.000,0.000,0.000,0.000,0.000,0.000,0.000,0.000,0.000,false,false,false,false,false,false,false,false,false,false,false,false,--.--,--.--,--.--,--.--,--.--,--.--,--.--,--.--,22.2341815,68.9617778,42QVK 96061 58748,100.0,100.0,319.8,1,0,--.--,--.--,,--.--,--.--,--.--,0,0,--.--,--.--,0,--.--,--.--,--.--,--.--,--.--,--.--,--.--,--.--,--.--,--.--,--.--,--.--,--.--,--.--,--.--,--.--,--.--,--.--,62.57,21.06,--.--,0,0,0.3,0.9,0.4,0,0,0,--.--,--.--,--.--
2023-01-16 12:27:38.982,-2.8,-0.6,261,0.0,0.0,0.0,0.5,0.0,0.000,0.0,0.0,0.0,0.010,-0.028,0.000,0.0,00:00:04,0.0,0,--.--,0,0.0,50,0000:00:00,50,0,50,50,50,0,0,3.81,0,0,0,15.08,16.92,19,--.--,99,--.--,--:--:--,1,255.12,12:27:38,16/01/23,--.--,--.--,--.--,--.--,--.--,--.--,--.--,--.--,--.--,3.81,--.--,7.00,0,0.000,0.000,0.000,0.000,0.000,0.000,0.000,0.000,0.000,0.000,0.000,0.000,false,false,false,false,false,false,false,false,false,false,false,false,--.--,--.--,--.--,--.--,--.--,--.--,--.--,--.--,22.2341815,68.9617778,42QVK 96061 58748,100.0,100.0,319.8,1,0,--.--,--.--,,--.--,--.--,--.--,0,0,--.--,--.--,0,--.--,--.--,--.--,--.--,--.--,--.--,--.--,--.--,--.--,--.--,--.--,--.--,--.--,--.--,--.--,--.--,--.--,--.--,62.57,21.06,--.--,0,0,0.4,0.9,0.4,0,0,0,--.--,--.--,--.--
2023-01-16 12:27:39.983,-2.8,1.0,262,0.0,0.0,0.0,0.4,0.0,0.000,0.0,0.0,0.0,0.010,0.063,0.000,0.0,00:00:05,0.0,0,--.--,0,0.0,50,0000:00:00,50,0,50,50,50,0,0,0.00,0,0,0,15.07,16.87,24,--.--,99,--.--,--:--:--,1,254.21,12:27:39,16/01/23,--.--,--.--,--.--,--.--,--.--,--.--,--.--,--.--,--.--,0.00,--.--,7.00,0,0.000,0.000,0.000,0.000,0.000,0.000,0.000,0.000,0.000,0.000,0.000,0.000,false,false,false,false,false,false,false,false,false,false,false,false,--.--,--.--,--.--,--.--,--.--,--.--,--.--,--.--,22.2341815,68.9617778,42QVK 96061 58748,100.0,100.0,319.8,1,0,--.--,--.--,,--.--,--.--,--.--,0,0,--.--,--.--,0,--.--,--.--,--.--,--.--,--.--,--.--,--.--,--.--,--.--,--.--,--.--,--.--,--.--,--.--,--.--,--.--,--.--,--.--,62.58,21.06,--.--,0,0,0.3,1.0,0.4,0,0,0,--.--,--.--,--.--
2023-01-16 12:27:40.983,-1.1,-4.4,266,0.0,0.0,0.0,0.5,0.0,0.000,-0.1,0.0,0.0,0.010,-0.018,0.000,0.0,00:00:06,0.0,0,--.--,0,0.0,50,0000:00:00,50,0,50,50,50,0,0,3.93,0,0,0,15.06,16.73,29,--.--,99,--.--,--:--:--,1,251.95,12:27:40,16/01/23,--.--,--.--,--.--,--.--,--.--,--.--,--.--,--.--,--.--,3.93,--.--,7.00,0,0.000,0.000,0.000,0.000,0.000,0.000,0.000,0.000,0.000,0.000,0.000,0.000,false,false,false,false,false,false,false,false,false,false,false,false,--.--,--.--,--.--,--.--,--.--,--.--,--.--,--.--,22.2341815,68.9617778,42QVK 96061 58748,100.0,100.0,319.8,1,0,--.--,--.--,,--.--,--.--,--.--,0,0,--.--,--.--,0,--.--,--.--,--.--,--.--,--.--,--.--,--.--,--.--,--.--,--.--,--.--,--.--,--.--,--.--,--.--,--.--,--.--,--.--,62.58,21.05,--.--,0,0,0.4,1.2,0.4,0,0,0,--.--,--.--,--.--
2023-01-16 12:27:41.982,0.8,6.7,259,0.0,0.0,0.0,0.1,0.0,0.000,0.0,-0.0,0.0,0.010,-0.003,0.000,0.0,00:00:07,0.0,0,--.--,0,0.0,50,0000:00:00,50,0,50,50,50,0,0,3.46,0,0,0,15.41,0.88,30,--.--,99,--.--,--:--:--,1,13.56,12:27:41,16/01/23,--.--,--.--,--.--,--.--,--.--,--.--,--.--,--.--,--.--,3.46,--.--,7.00,0,0.000,0.000,0.000,0.000,0.000,0.000,0.000,0.000,0.000,0.000,0.000,0.000,false,false,false,false,false,false,false,false,false,false,false,false,--.--,--.--,--.--,--.--,--.--,--.--,--.--,--.--,22.2341815,68.9617778,42QVK 96061 58748,100.0,100.0,319.8,1,0,--.--,--.--,,--.--,--.--,--.--,0,0,--.--,--.--,0,--.--,--.--,--.--,--.--,--.--,--.--,--.--,--.--,--.--,--.--,--.--,--.--,--.--,--.--,--.--,--.--,--.--,--.--,62.58,21.05,--.--,0,0,0.1,0.2,0.1,0,0,0,--.--,--.--,--.--
2023-01-16 12:27:42.982,-3.3,6.7,254,0.0,0.0,0.0,0.1,0.0,0.000,-0.0,-0.0,0.0,0.010,0.006,0.000,0.0,00:00:08,0.0,0,--.--,0,0.0,50,0000:00:00,50,0,50,50,50,0,0,3.87,0,0,0,15.42,0.89,31,--.--,99,--.--,--:--:--,1,13.73,12:27:42,16/01/23,--.--,--.--,--.--,--.--,--.--,--.--,--.--,--.--,--.--,3.87,--.--,7.00,0,0.000,0.000,0.000,0.000,0.000,0.000,0.000,0.000,0.000,0.000,0.000,0.000,false,false,false,false,false,false,false,false,false,false,false,false,--.--,--.--,--.--,--.--,--.--,--.--,--.--,--.--,22.2341815,68.9617778,42QVK 96061 58748,100.0,100.0,319.8,1,0,--.--,--.--,,--.--,--.--,--.--,0,0,--.--,--.--,0,--.--,--.--,--.--,--.--,--.--,--.--,--.--,--.--,--.--,--.--,--.--,--.--,--.--,--.--,--.--,--.--,--.--,--.--,62.58,21.05,--.--,0,0,0.0,0.1,0.1,0,0,0,--.--,--.--,--.--
2023-01-16 12:27:43.982,3.0,5.0,254,0.0,0.0,0.0,0.1,0.0,0.000,-0.1,-0.0,0.0,0.010,-0.035,0.000,0.0,00:00:09,0.0,0,--.--,0,0.0,50,0000:00:00,50,0,50,50,50,0,0,3.68,0,0,0,15.42,0.98,31,--.--,99,--.--,--:--:--,1,15.12,12:27:43,16/01/23,--.--,--.--,--.--,--.--,--.--,--.--,--.--,--.--,--.--,3.68,--.--,7.00,0,0.000,0.000,0.000,0.000,0.000,0.000,0.000,0.000,0.000,0.000,0.000,0.000,false,false,false,false,false,false,false,false,false,false,false,false,--.--,--.--,--.--,--.--,--.--,--.--,--.--,--.--,22.2341815,68.9617778,42QVK 96061 58748,100.0,100.0,319.8,1,0,--.--,--.--,,--.--,--.--,--.--,0,0,--.--,--.--,0,--.--,--.--,--.--,--.--,--.--,--.--,--.--,--.--,--.--,--.--,--.--,--.--,--.--,--.--,--.--,--.--,--.--,--.--,62.58,21.05,--.--,0,0,0.1,0.1,0.1,0,0,0,--.--,--.--,--.--
2023-01-16 12:27:44.982,1.7,0.4,254,0.0,0.0,0.0,0.1,0.0,0.000,-0.1,0.0,0.0,0.010,-0.098,0.000,0.0,00:00:10,0.0,0,--.--,0,0.0,50,0000:00:00,50,0,50,50,50,0,0,3.80,0,0,0,15.43,0.86,31,--.--,99,--.--,--:--:--,1,13.27,12:27:44,16/01/23,--.--,--.--,--.--,--.--,--.--,--.--,--.--,--.--,--.--,3.80,--.--,7.00,0,0.000,0.000,0.000,0.000,0.000,0.000,0.000,0.000,0.000,0.000,0.000,0.000,false,false,false,false,false,false,false,false,false,false,false,false,--.--,--.--,--.--,--.--,--.--,--.--,--.--,--.--,22.2341815,68.9617778,42QVK 96061 58748,100.0,100.0,319.8,1,0,--.--,--.--,,--.--,--.--,--.--,0,0,--.--,--.--,0,--.--,--.--,--.--,--.--,--.--,--.--,--.--,--.--,--.--,--.--,--.--,--.--,--.--,--.--,--.--,--.--,--.--,--.--,62.59,21.05,--.--,0,0,0.0,0.1,0.0,0,0,0,--.--,--.--,--.--
2023-01-16 12:27:45.982,3.2,4.1,254,0.0,0.0,0.0,0.1,0.0,0.000,0.2,-0.0,0.0,0.010,0.007,0.000,0.0,00:00:11,0.0,0,--.--,0,0.0,50,0000:00:00,50,0,50,50,50,0,0,3.76,0,0,0,15.43,0.90,31,--.--,99,--.--,--:--:--,1,13.89,12:27:45,16/01/23,--.--,--.--,--.--,--.--,--.--,--.--,--.--,--.--,--.--,3.76,--.--,7.00,0,0.000,0.000,0.000,0.000,0.000,0.000,0.000,0.000,0.000,0.000,0.000,0.000,false,false,false,false,false,false,false,false,false,false,false,false,--.--,--.--,--.--,--.--,--.--,--.--,--.--,--.--,22.2341815,68.9617778,42QVK 96061 58748,100.0,100.0,319.8,1,0,--.--,--.--,,--.--,--.--,--.--,0,0,--.--,--.--,0,--.--,--.--,--.--,--.--,--.--,--.--,--.--,--.--,--.--,--.--,--.--,--.--,--.--,--.--,--.--,--.--,--.--,--.--,62.58,21.05,--.--,0,0,0.0,0.0,0.0,0,0,0,--.--,--.--,--.--
2023-01-16 12:27:46.982,2.8,1.7,254,0.0,0.0,0.0,0.1,0.0,0.000,-0.1,-0.0,0.0,0.010,0.038,0.000,0.0,00:00:12,0.0,0,--.--,0,0.0,50,0000:00:00,50,0,50,50,50,0,0,3.48,0,0,0,15.44,0.87,32,--.--,99,--.--,--:--:--,1,13.43,12:27:46,16/01/23,--.--,--.--,--.--,--.--,--.--,--.--,--.--,--.--,--.--,3.48,--.--,7.00,0,0.000,0.000,0.000,0.000,0.000,0.000,0.000,0.000,0.000,0.000,0.000,0.000,false,false,false,false,false,false,false,false,false,false,false,false,--.--,--.--,--.--,--.--,--.--,--.--,--.--,--.--,22.2341815,68.9617778,42QVK 96061 58748,100.0,100.0,319.8,1,0,--.--,--.--,,--.--,--.--,--.--,0,0,--.--,--.--,0,--.--,--.--,--.--,--.--,--.--,--.--,--.--,--.--,--.--,--.--,--.--,--.--,--.--,--.--,--.--,--.--,--.--,--.--,62.58,21.05,--.--,0,0,0.1,0.0,0.0,0,0,0,--.--,--.--,--.--
2023-01-16 12:27:47.982,3.8,4.8,256,0.0,0.0,0.0,0.1,0.0,0.000,0.1,0.0,0.0,0.010,0.028,0.000,0.0,00:00:13,0.0,0,--.--,0,0.0,50,0000:00:00,50,0,50,50,50,0,0,3.79,0,0,0,15.44,0.83,32,--.--,99,--.--,--:--:--,1,12.81,12:27:47,16/01/23,--.--,--.--,--.--,--.--,--.--,--.--,--.--,--.--,--.--,3.79,--.--,7.00,0,0.000,0.000,0.000,0.000,0.000,0.000,0.000,0.000,0.000,0.000,0.000,0.000,false,false,false,false,false,false,false,false,false,false,false,false,--.--,--.--,--.--,--.--,--.--,--.--,--.--,--.--,22.2341815,68.9617778,42QVK 96061 58748,100.0,100.0,319.8,1,0,--.--,--.--,,--.--,--.--,--.--,0,0,--.--,--.--,0,--.--,--.--,--.--,--.--,--.--,--.--,--.--,--.--,--.--,--.--,--.--,--.--,--.--,--.--,--.--,--.--,--.--,--.--,62.59,21.05,--.--,0,0,0.1,0.1,0.0,0,0,0,--.--,--.--,--.--
2023-01-16 12:27:48.982,1.1,3.4,258,0.0,0.0,0.0,0.2,0.0,0.000,-0.0,-0.0,0.0,0.010,0.052,0.000,0.0,00:00:14,0.0,0,--.--,0,0.0,50,0000:00:00,50,0,50,50,50,0,0,3.80,0,0,0,15.41,2.39,32,--.--,99,--.--,--:--:--,1,36.82,12:27:48,16/01/23,--.--,--.--,--.--,--.--,--.--,--.--,--.--,--.--,--.--,3.80,--.--,7.00,0,0.000,0.000,0.000,0.000,0.000,0.000,0.000,0.000,0.000,0.000,0.000,0.000,false,false,false,false,false,false,false,false,false,false,false,false,--.--,--.--,--.--,--.--,--.--,--.--,--.--,--.--,22.2341815,68.9617778,42QVK 96061 58748,100.0,100.0,319.8,1,0,--.--,--.--,,--.--,--.--,--.--,0,0,--.--,--.--,0,--.--,--.--,--.--,--.--,--.--,--.--,--.--,--.--,--.--,--.--,--.--,--.--,--.--,--.--,--.--,--.--,--.--,--.--,62.59,21.06,--.--,0,0,0.7,0.9,0.4,0,0,0,--.--,--.--,--.--
2023-01-16 12:27:49.982,2.8,-7.4,253,0.0,0.0,0.0,0.6,0.0,0.000,-0.1,0.0,0.0,0.010,-0.069,0.000,0.0,00:00:15,0.0,0,--.--,0,0.0,50,0000:00:00,50,0,50,50,50,0,0,0.00,0,0,0,15.08,16.68,37,--.--,99,--.--,--:--:--,1,251.48,12:27:49,16/01/23,--.--,--.--,--.--,--.--,--.--,--.--,--.--,--.--,--.--,0.00,--.--,7.00,0,0.000,0.000,0.000,0.000,0.000,0.000,0.000,0.000,0.000,0.000,0.000,0.000,false,false,false,false,false,false,false,false,false,false,false,false,--.--,--.--,--.--,--.--,--.--,--.--,--.--,--.--,22.2341815,68.9617778,42QVK 96061 58748,100.0,100.0,319.8,1,0,--.--,--.--,,--.--,--.--,--.--,0,0,--.--,--.--,0,--.--,--.--,--.--,--.--,--.--,--.--,--.--,--.--,--.--,--.--,--.--,--.--,--.--,--.--,--.--,--.--,--.--,--.--,62.59,21.06,--.--,0,0,0.3,1.3,0.4,0,0,0,--.--,--.--,--.--
2023-01-16 12:27:50.983,-1.4,-12.1,253,0.0,0.0,0.0,0.5,0.0,0.000,-0.0,-0.0,0.0,0.010,0.018,0.000,0.0,00:00:16,0.0,0,--.--,0,0.0,50,0000:00:00,50,0,50,50,50,0,0,3.53,0,0,0,15.07,16.66,41,--.--,99,--.--,--:--:--,1,251.00,12:27:50,16/01/23,--.--,--.--,--.--,--.--,--.--,--.--,--.--,--.--,--.--,3.53,--.--,7.00,0,0.000,0.000,0.000,0.000,0.000,0.000,0.000,0.000,0.000,0.000,0.000,0.000,false,false,false,false,false,false,false,false,false,false,false,false,--.--,--.--,--.--,--.--,--.--,--.--,--.--,--.--,22.2341815,68.9617778,42QVK 96061 58748,100.0,100.0,319.8,1,0,--.--,--.--,,--.--,--.--,--.--,0,0,--.--,--.--,0,--.--,--.--,--.--,--.--,--.--,--.--,--.--,--.--,--.--,--.--,--.--,--.--,--.--,--.--,--.--,--.--,--.--,--.--,62.60,21.05,--.--,0,0,0.4,1.1,0.5,0,0,0,--.--,--.--,--.--
2023-01-16 12:27:51.990,-9.9,4.2,251,0.0,0.0,0.0,0.2,0.0,0.000,0.0,-0.1,0.0,0.010,-0.013,0.000,0.0,00:00:17,0.0,0,--.--,0,0.0,50,0000:00:00,50,0,50,50,50,0,0,3.38,0,0,0,15.40,0.91,46,--.--,99,--.--,--:--:--,1,14.01,12:27:51,16/01/23,--.--,--.--,--.--,--.--,--.--,--.--,--.--,--.--,--.--,3.39,--.--,7.00,0,0.000,0.000,0.000,0.000,0.000,0.000,0.000,0.000,0.000,0.000,0.000,0.000,false,false,false,false,false,false,false,false,false,false,false,false,--.--,--.--,--.--,--.--,--.--,--.--,--.--,--.--,22.2341815,68.9617778,42QVK 96061 58748,100.0,100.0,319.8,1,0,--.--,--.--,,--.--,--.--,--.--,0,0,--.--,--.--,0,--.--,--.--,--.--,--.--,--.--,--.--,--.--,--.--,--.--,--.--,--.--,--.--,--.--,--.--,--.--,--.--,--.--,--.--,62.60,21.06,--.--,0,0,0.4,0.6,0.4,0,0,0,--.--,--.--,--.--
2023-01-16 12:27:52.983,-2.8,12.2,255,0.0,0.0,0.0,0.2,0.0,0.000,-0.2,-0.1,0.0,0.010,-0.147,0.000,0.0,00:00:18,0.0,0,--.--,0,0.0,50,0000:00:00,50,0,50,50,50,0,0,3.63,0,0,0,15.06,16.93,48,--.--,99,--.--,--:--:--,1,254.90,12:27:52,16/01/23,--.--,--.--,--.--,--.--,--.--,--.--,--.--,--.--,--.--,3.63,--.--,7.00,0,0.000,0.000,0.000,0.000,0.000,0.000,0.000,0.000,0.000,0.000,0.000,0.000,false,false,false,false,false,false,false,false,false,false,false,false,--.--,--.--,--.--,--.--,--.--,--.--,--.--,--.--,22.2341815,68.9617778,42QVK 96061 58748,100.0,100.0,319.8,1,0,--.--,--.--,,--.--,--.--,--.--,0,0,--.--,--.--,0,--.--,--.--,--.--,--.--,--.--,--.--,--.--,--.--,--.--,--.--,--.--,--.--,--.--,--.--,--.--,--.--,--.--,--.--,62.61,21.06,--.--,0,0,0.6,0.8,0.4,0,0,0,--.--,--.--,--.--
2023-01-16 12:27:53.983,-2.8,25.3,252,0.0,0.0,0.0,0.1,0.0,0.000,-0.1,-0.4,0.0,0.010,-0.380,0.000,0.0,00:00:19,0.0,0,--.--,0,0.0,50,0000:00:00,50,0,50,50,50,0,0,3.53,0,0,0,15.05,16.84,52,--.--,99,--.--,--:--:--,1,253.39,12:27:53,16/01/23,--.--,--.--,--.--,--.--,--.--,--.--,--.--,--.--,--.--,3.53,--.--,7.00,0,0.000,0.000,0.000,0.000,0.000,0.000,0.000,0.000,0.000,0.000,0.000,0.000,false,false,false,false,false,false,false,false,false,false,false,false,--.--,--.--,--.--,--.--,--.--,--.--,--.--,--.--,22.2341815,68.9617778,42QVK 96061 58748,100.0,100.0,319.8,1,0,--.--,--.--,,--.--,--.--,--.--,0,0,--.--,--.--,0,-0.0,-0.0,0.4,-0.0,-0.0,0.2,--.--,--.--,--.--,--.--,--.--,--.--,--.--,--.--,--.--,--.--,--.--,--.--,62.60,21.06,--.--,0,0,0.5,0.7,0.6,0,0,0,--.--,--.--,--.--
2023-01-16 12:27:54.982,4.5,9.7,259,0.0,0.0,0.0,0.2,0.0,0.000,0.1,-0.4,0.0,0.010,-0.340,0.000,0.0,00:00:20,0.0,0,--.--,0,0.0,50,0000:00:00,50,0,50,50,50,0,0,3.49,0,0,0,15.40,0.83,53,--.--,99,--.--,--:--:--,1,12.78,12:27:54,16/01/23,--.--,--.--,--.--,--.--,--.--,--.--,--.--,--.--,--.--,3.49,--.--,7.00,0,0.000,0.000,0.000,0.000,0.000,0.000,0.000,0.000,0.000,0.000,0.000,0.000,false,false,false,false,false,false,false,false,false,false,false,false,--.--,--.--,--.--,--.--,--.--,--.--,--.--,--.--,22.2341815,68.9617778,42QVK 96061 58748,100.0,100.0,319.8,1,0,--.--,--.--,,--.--,--.--,--.--,0,0,--.--,--.--,0,0.2,0.1,0.4,0.2,0.0,-0.1,--.--,--.--,--.--,--.--,--.--,--.--,--.--,--.--,--.--,--.--,--.--,--.--,62.60,21.06,--.--,0,0,0.1,0.1,0.0,0,0,0,--.--,--.--,--.--
2023-01-16 12:27:55.983,4.7,4.4,265,0.0,0.0,0.0,0.1,0.0,0.000,0.0,-0.3,0.0,0.010,-0.343,0.000,0.0,00:00:21,0.0,0,--.--,0,0.0,50,0000:00:00,50,0,50,50,50,0,0,3.29,0,0,0,15.41,0.88,53,--.--,99,--.--,--:--:--,1,13.56,12:27:55,16/01/23,--.--,--.--,--.--,--.--,--.--,--.--,--.--,--.--,--.--,3.29,--.--,7.00,0,0.000,0.000,0.000,0.000,0.000,0.000,0.000,0.000,0.000,0.000,0.000,0.000,false,false,false,false,false,false,false,false,false,false,false,false,--.--,--.--,--.--,--.--,--.--,--.--,--.--,--.--,22.2341815,68.9617778,42QVK 96061 58748,100.0,100.0,319.8,1,0,--.--,--.--,,--.--,--.--,--.--,0,0,--.--,--.--,0,0.4,0.4,0.4,0.1,0.1,-0.0,--.--,--.--,--.--,--.--,--.--,--.--,--.--,--.--,--.--,--.--,--.--,--.--,62.61,21.06,--.--,0,0,0.0,0.0,0.0,0,0,0,--.--,--.--,--.--
2023-01-16 12:27:56.983,2.3,9.4,269,0.0,0.0,0.0,0.1,0.0,0.000,0.1,-0.3,0.0,0.010,-0.266,0.000,0.0,00:00:22,0.0,0,--.--,0,0.0,50,0000:00:00,50,0,50,50,50,0,0,3.30,0,0,0,15.41,0.88,54,--.--,99,--.--,--:--:--,1,13.56,12:27:56,16/01/23,--.--,--.--,--.--,--.--,--.--,--.--,--.--,--.--,--.--,3.30,--.--,7.00,0,0.000,0.000,0.000,0.000,0.000,0.000,0.000,0.000,0.000,0.000,0.000,0.000,false,false,false,false,false,false,false,false,false,false,false,false,--.--,--.--,--.--,--.--,--.--,--.--,--.--,--.--,22.2341815,68.9617778,42QVK 96061 58748,100.0,100.0,319.8,1,0,--.--,--.--,,--.--,--.--,--.--,0,0,--.--,--.--,0,0.6,0.4,0.3,0.1,0.0,-0.1,--.--,--.--,--.--,--.--,--.--,--.--,--.--,--.--,--.--,--.--,--.--,--.--,62.61,21.06,--.--,0,0,0.0,0.0,0.0,0,0,0,--.--,--.--,--.--
2023-01-16 12:27:57.983,2.4,6.7,274,0.0,0.0,0.0,0.1,0.0,0.000,0.1,-0.1,0.0,0.010,-0.154,0.000,0.0,00:00:23,0.0,0,--.--,0,0.0,50,0000:00:00,50,0,50,50,50,0,0,3.34,0,0,0,15.42,0.88,54,--.--,99,--.--,--:--:--,1,13.57,12:27:57,16/01/23,--.--,--.--,--.--,--.--,--.--,--.--,--.--,--.--,--.--,3.34,--.--,7.00,0,0.000,0.000,0.000,0.000,0.000,0.000,0.000,0.000,0.000,0.000,0.000,0.000,false,false,false,false,false,false,false,false,false,false,false,false,--.--,--.--,--.--,--.--,--.--,--.--,--.--,--.--,22.2341815,68.9617778,42QVK 96061 58748,100.0,100.0,319.8,1,0,--.--,--.--,,--.--,--.--,--.--,0,0,--.--,--.--,0,0.7,0.3,0.2,0.1,-0.1,-0.1,--.--,--.--,--.--,--.--,--.--,--.--,--.--,--.--,--.--,--.--,--.--,--.--,62.61,21.05,--.--,0,0,0.0,0.0,0.0,0,0,0,--.--,--.--,--.--
2023-01-16 12:27:58.982,1.8,0.9,278,0.0,0.0,0.0,0.2,0.0,0.000,-0.0,0.0,0.0,0.010,-0.045,0.000,0.0,00:00:24,0.0,0,--.--,0,0.0,50,0000:00:00,50,0,50,50,50,0,0,3.62,0,0,0,15.42,0.84,54,--.--,99,--.--,--:--:--,1,12.95,12:27:58,16/01/23,--.--,--.--,--.--,--.--,--.--,--.--,--.--,--.--,--.--,3.62,--.--,7.00,0,0.000,0.000,0.000,0.000,0.000,0.000,0.000,0.000,0.000,0.000,0.000,0.000,false,false,false,false,false,false,false,false,false,false,false,false,--.--,--.--,--.--,--.--,--.--,--.--,--.--,--.--,22.2341815,68.9617778,42QVK 96061 58748,100.0,100.0,319.8,1,0,--.--,--.--,,--.--,--.--,--.--,0,0,--.--,--.--,0,0.7,0.1,0.1,0.0,-0.2,0.0,--.--,--.--,--.--,--.--,--.--,--.--,--.--,--.--,--.--,--.--,--.--,--.--,62.61,21.06,--.--,0,0,0.1,0.0,0.0,0,0,0,--.--,--.--,--.--
2023-01-16 12:27:59.983,4.2,3.2,282,0.0,0.0,0.0,0.0,0.0,0.000,0.0,0.0,0.0,0.010,0.026,0.000,0.0,00:00:25,0.0,0,--.--,0,0.0,50,0000:00:00,50,0,50,50,50,0,0,3.42,0,0,0,15.42,0.81,54,--.--,99,--.--,--:--:--,1,12.49,12:27:59,16/01/23,--.--,--.--,--.--,--.--,--.--,--.--,--.--,--.--,--.--,3.42,--.--,7.00,0,0.000,0.000,0.000,0.000,0.000,0.000,0.000,0.000,0.000,0.000,0.000,0.000,false,false,false,false,false,false,false,false,false,false,false,false,--.--,--.--,--.--,--.--,--.--,--.--,--.--,--.--,22.2341815,68.9617778,42QVK 96061 58748,100.0,100.0,319.8,1,0,--.--,--.--,,--.--,--.--,--.--,0,0,--.--,--.--,0,0.8,0.1,-0.0,0.1,-0.0,-0.1,--.--,--.--,--.--,--.--,--.--,--.--,--.--,--.--,--.--,--.--,--.--,--.--,62.61,21.06,--.--,0,0,0.1,0.0,0.0,0,0,0,--.--,--.--,--.--
2023-01-16 12:28:00.982,2.9,1.0,283,0.0,0.0,0.0,0.1,0.0,0.000,-0.1,0.0,0.0,0.010,-0.023,0.000,0.0,00:00:26,0.0,0,--.--,0,0.0,50,0000:00:00,50,0,50,50,50,0,0,3.42,0,0,0,15.42,0.87,55,--.--,99,--.--,--:--:--,1,13.42,12:28:00,16/01/23,--.--,--.--,--.--,--.--,--.--,--.--,--.--,--.--,--.--,3.42,--.--,7.00,0,0.000,0.000,0.000,0.000,0.000,0.000,0.000,0.000,0.000,0.000,0.000,0.000,false,false,false,false,false,false,false,false,false,false,false,false,--.--,--.--,--.--,--.--,--.--,--.--,--.--,--.--,22.2341815,68.9617778,42QVK 96061 58748,100.0,100.0,319.8,1,0,--.--,--.--,,--.--,--.--,--.--,0,0,--.--,--.--,0,0.7,-0.0,0.0,0.0,-0.1,0.1,--.--,--.--,--.--,--.--,--.--,--.--,--.--,--.--,--.--,--.--,--.--,--.--,62.62,21.06,--.--,0,0,0.0,0.1,0.1,0,0,0,--.--,--.--,--.--
2023-01-16 12:28:01.982,2.7,6.0,280,0.0,0.0,0.0,0.1,0.0,0.000,0.0,-0.0,0.0,0.010,0.027,0.000,0.0,00:00:27,0.0,0,--.--,0,0.0,50,0000:00:00,50,0,50,50,50,0,0,3.47,0,0,0,15.43,0.88,55,--.--,99,--.--,--:--:--,1,13.57,12:28:01,16/01/23,--.--,--.--,--.--,--.--,--.--,--.--,--.--,--.--,--.--,3.47,--.--,7.00,0,0.000,0.000,0.000,0.000,0.000,0.000,0.000,0.000,0.000,0.000,0.000,0.000,false,false,false,false,false,false,false,false,false,false,false,false,--.--,--.--,--.--,--.--,--.--,--.--,--.--,--.--,22.2341815,68.9617778,42QVK 96061 58748,100.0,100.0,319.8,1,0,--.--,--.--,,--.--,--.--,--.--,0,0,--.--,--.--,0,0.7,-0.1,-0.0,-0.1,-0.0,-0.0,--.--,--.--,--.--,--.--,--.--,--.--,--.--,--.--,--.--,--.--,--.--,--.--,62.61,21.06,--.--,0,0,0.0,0.1,0.0,0,0,0,--.--,--.--,--.--
2023-01-16 12:28:02.983,3.5,2.1,276,0.0,0.0,0.0,0.1,0.0,0.000,0.0,-0.0,0.0,0.010,0.002,0.000,0.0,00:00:28,0.0,0,--.--,0,0.0,50,0000:00:00,50,0,50,50,50,0,0,3.52,0,0,0,15.43,0.85,55,--.--,99,--.--,--:--:--,1,13.11,12:28:02,16/01/23,--.--,--.--,--.--,--.--,--.--,--.--,--.--,--.--,--.--,3.52,--.--,7.00,0,0.000,0.000,0.000,0.000,0.000,0.000,0.000,0.000,0.000,0.000,0.000,0.000,false,false,false,false,false,false,false,false,false,false,false,false,--.--,--.--,--.--,--.--,--.--,--.--,--.--,--.--,22.2341815,68.9617778,42QVK 96061 58748,100.0,100.0,319.8,1,0,--.--,--.--,,--.--,--.--,--.--,0,0,--.--,--.--,0,0.7,-0.2,0.0,-0.0,-0.1,-0.0,--.--,--.--,--.--,--.--,--.--,--.--,--.--,--.--,--.--,--.--,--.--,--.--,62.61,21.06,--.--,0,0,0.0,0.0,0.0,0,0,0,--.--,--.--,--.--
2023-01-16 12:28:03.983,2.6,5.5,271,0.0,0.0,0.0,0.1,0.0,0.000,0.0,-0.0,0.0,0.010,0.055,0.000,0.0,00:00:29,0.0,0,--.--,0,0.0,50,0000:00:00,50,0,50,50,50,0,0,3.55,0,0,0,15.43,0.87,55,--.--,99,--.--,--:--:--,1,13.42,12:28:03,16/01/23,--.--,--.--,--.--,--.--,--.--,--.--,--.--,--.--,--.--,3.55,--.--,7.00,0,0.000,0.000,0.000,0.000,0.000,0.000,0.000,0.000,0.000,0.000,0.000,0.000,false,false,false,false,false,false,false,false,false,false,false,false,--.--,--.--,--.--,--.--,--.--,--.--,--.--,--.--,22.2341815,68.9617778,42QVK 96061 58748,100.0,100.0,319.8,1,0,--.--,--.--,,--.--,--.--,--.--,0,0,--.--,--.--,0,0.7,-0.2,-0.0,0.0,0.1,-0.0,--.--,--.--,--.--,--.--,--.--,--.--,--.--,--.--,--.--,--.--,--.--,--.--,62.62,21.06,--.--,0,0,0.0,0.0,0.0,0,0,0,--.--,--.--,--.--
2023-01-16 12:28:04.982,4.2,3.2,268,0.0,0.0,0.0,0.2,0.0,0.000,0.0,0.0,0.0,0.010,-0.045,0.000,0.0,00:00:30,0.0,0,--.--,0,0.0,50,0000:00:00,50,0,50,50,50,0,0,3.65,0,0,0,15.43,0.88,56,--.--,99,--.--,--:--:--,1,13.58,12:28:04,16/01/23,--.--,--.--,--.--,--.--,--.--,--.--,--.--,--.--,--.--,3.65,--.--,7.00,0,0.000,0.000,0.000,0.000,0.000,0.000,0.000,0.000,0.000,0.000,0.000,0.000,false,false,false,false,false,false,false,false,false,false,false,false,--.--,--.--,--.--,--.--,--.--,--.--,--.--,--.--,22.2341815,68.9617778,42QVK 96061 58748,100.0,100.0,319.8,1,0,--.--,--.--,,--.--,--.--,--.--,0,0,--.--,--.--,0,0.8,-0.2,0.1,0.1,-0.0,-0.0,--.--,--.--,--.--,--.--,--.--,--.--,--.--,--.--,--.--,--.--,--.--,--.--,62.62,21.06,--.--,0,0,0.0,0.1,0.0,0,0,0,--.--,--.--,--.--
2023-01-16 12:28:05.982,3.5,5.3,266,0.0,0.0,0.0,0.2,0.0,0.000,-0.1,-0.0,0.0,0.010,-0.003,0.000,0.0,00:00:31,0.0,0,--.--,0,0.0,50,0000:00:00,50,0,50,50,50,0,0,3.68,0,0,0,15.43,0.86,56,--.--,99,--.--,--:--:--,1,13.27,12:28:05,16/01/23,--.--,--.--,--.--,--.--,--.--,--.--,--.--,--.--,--.--,3.68,--.--,7.00,0,0.000,0.000,0.000,0.000,0.000,0.000,0.000,0.000,0.000,0.000,0.000,0.000,false,false,false,false,false,false,false,false,false,false,false,false,--.--,--.--,--.--,--.--,--.--,--.--,--.--,--.--,22.2341815,68.9617778,42QVK 96061 58748,100.0,100.0,319.8,1,0,--.--,--.--,,--.--,--.--,--.--,0,0,--.--,--.--,0,0.8,-0.1,0.0,0.2,0.1,0.1,--.--,--.--,--.--,--.--,--.--,--.--,--.--,--.--,--.--,--.--,--.--,--.--,62.62,21.07,--.--,0,0,0.0,0.0,0.0,0,0,0,--.--,--.--,--.--
2023-01-16 12:28:06.982,1.4,3.1,264,0.0,0.0,0.0,0.1,0.0,0.000,-0.0,0.0,0.0,0.010,-0.067,0.000,0.0,00:00:32,0.0,0,--.--,0,0.0,50,0000:00:00,50,0,50,50,50,0,0,3.76,0,0,0,15.43,0.86,56,--.--,99,--.--,--:--:--,1,13.27,12:28:06,16/01/23,--.--,--.--,--.--,--.--,--.--,--.--,--.--,--.--,--.--,3.76,--.--,7.00,0,0.000,0.000,0.000,0.000,0.000,0.000,0.000,0.000,0.000,0.000,0.000,0.000,false,false,false,false,false,false,false,false,false,false,false,false,--.--,--.--,--.--,--.--,--.--,--.--,--.--,--.--,22.2341815,68.9617778,42QVK 96061 58748,100.0,100.0,319.8,1,0,--.--,--.--,,--.--,--.--,--.--,0,0,--.--,--.--,0,0.9,-0.1,0.1,0.1,-0.0,0.0,--.--,--.--,--.--,--.--,--.--,--.--,--.--,--.--,--.--,--.--,--.--,--.--,62.62,21.07,--.--,0,0,0.0,0.1,0.0,0,0,0,--.--,--.--,--.--
2023-01-16 12:28:07.983,4.3,6.3,264,0.0,0.0,0.0,0.2,0.0,0.000,-0.0,-0.0,0.0,0.010,0.008,0.000,0.0,00:00:33,0.0,0,--.--,0,0.0,50,0000:00:00,50,0,50,50,50,0,0,3.57,0,0,0,15.44,0.89,56,--.--,99,--.--,--:--:--,1,13.74,12:28:07,16/01/23,--.--,--.--,--.--,--.--,--.--,--.--,--.--,--.--,--.--,3.57,--.--,7.00,0,0.000,0.000,0.000,0.000,0.000,0.000,0.000,0.000,0.000,0.000,0.000,0.000,false,false,false,false,false,false,false,false,false,false,false,false,--.--,--.--,--.--,--.--,--.--,--.--,--.--,--.--,22.2341815,68.9617778,42QVK 96061 58748,100.0,100.0,319.8,1,0,--.--,--.--,,--.--,--.--,--.--,0,0,--.--,--.--,0,1.1,-0.1,0.0,0.2,0.1,0.0,--.--,--.--,--.--,--.--,--.--,--.--,--.--,--.--,--.--,--.--,--.--,--.--,62.62,21.07,--.--,0,0,0.0,0.0,0.0,0,0,0,--.--,--.--,--.--
2023-01-16 12:28:08.982,1.2,5.5,264,0.0,0.0,0.0,0.1,0.0,0.000,-0.1,-0.0,0.0,0.010,-0.027,0.000,0.0,00:00:34,0.0,0,--.--,0,0.0,50,0000:00:00,50,0,50,50,50,0,0,3.73,0,0,0,15.44,0.85,56,--.--,99,--.--,--:--:--,1,13.12,12:28:08,16/01/23,--.--,--.--,--.--,--.--,--.--,--.--,--.--,--.--,--.--,3.73,--.--,7.00,0,0.000,0.000,0.000,0.000,0.000,0.000,0.000,0.000,0.000,0.000,0.000,0.000,false,false,false,false,false,false,false,false,false,false,false,false,--.--,--.--,--.--,--.--,--.--,--.--,--.--,--.--,22.2341815,68.9617778,42QVK 96061 58748,100.0,100.0,319.8,1,0,--.--,--.--,,--.--,--.--,--.--,0,0,--.--,--.--,0,1.2,-0.0,0.0,0.0,0.1,0.1,--.--,--.--,--.--,--.--,--.--,--.--,--.--,--.--,--.--,--.--,--.--,--.--,62.62,21.07,--.--,0,0,0.0,0.1,0.0,0,0,0,--.--,--.--,--.--
2023-01-16 12:28:09.982,2.6,5.7,266,0.0,0.0,0.0,0.1,0.0,0.000,-0.0,-0.0,0.0,0.010,-0.037,0.000,0.0,00:00:35,0.0,0,--.--,0,0.0,50,0000:00:00,50,0,50,50,50,0,0,0.00,0,0,0,15.44,0.88,57,--.--,99,--.--,--:--:--,1,13.59,12:28:09,16/01/23,--.--,--.--,--.--,--.--,--.--,--.--,--.--,--.--,--.--,0.00,--.--,7.00,0,0.000,0.000,0.000,0.000,0.000,0.000,0.000,0.000,0.000,0.000,0.000,0.000,false,false,false,false,false,false,false,false,false,false,false,false,--.--,--.--,--.--,--.--,--.--,--.--,--.--,--.--,22.2341815,68.9617778,42QVK 96061 58748,100.0,100.0,319.8,1,0,--.--,--.--,,--.--,--.--,--.--,0,0,--.--,--.--,0,1.3,0.1,0.0,0.0,0.1,0.0,--.--,--.--,--.--,--.--,--.--,--.--,--.--,--.--,--.--,--.--,--.--,--.--,62.62,21.07,--.--,0,0,0.0,0.1,0.0,0,0,0,--.--,--.--,--.--
2023-01-16 12:28:10.982,3.0,5.2,268,0.0,0.0,0.0,0.1,0.0,0.000,-0.0,-0.0,0.0,0.010,-0.027,0.000,0.0,00:00:36,0.0,0,--.--,0,0.0,50,0000:00:00,50,0,50,50,50,0,0,3.76,0,0,0,15.44,0.87,57,--.--,99,--.--,--:--:--,1,13.43,12:28:10,16/01/23,--.--,--.--,--.--,--.--,--.--,--.--,--.--,--.--,--.--,3.76,--.--,7.00,0,0.000,0.000,0.000,0.000,0.000,0.000,0.000,0.000,0.000,0.000,0.000,0.000,false,false,false,false,false,false,false,false,false,false,false,false,--.--,--.--,--.--,--.--,--.--,--.--,--.--,--.--,22.2341815,68.9617778,42QVK 96061 58748,100.0,100.0,319.8,1,0,--.--,--.--,,--.--,--.--,--.--,0,0,--.--,--.--,0,1.2,0.1,0.0,-0.0,0.1,0.0,--.--,--.--,--.--,--.--,--.--,--.--,--.--,--.--,--.--,--.--,--.--,--.--,62.62,21.07,--.--,0,0,0.0,0.0,0.0,0,0,0,--.--,--.--,--.--
2023-01-16 12:28:11.982,3.1,3.5,270,0.0,0.0,0.0,0.0,0.0,0.000,-0.1,-0.0,0.0,0.010,-0.069,0.000,0.0,00:00:37,0.0,0,--.--,0,0.0,50,0000:00:00,50,0,50,50,50,0,0,3.77,0,0,0,15.44,0.88,57,--.--,99,--.--,--:--:--,1,13.59,12:28:11,16/01/23,--.--,--.--,--.--,--.--,--.--,--.--,--.--,--.--,--.--,3.77,--.--,7.00,0,0.000,0.000,0.000,0.000,0.000,0.000,0.000,0.000,0.000,0.000,0.000,0.000,false,false,false,false,false,false,false,false,false,false,false,false,--.--,--.--,--.--,--.--,--.--,--.--,--.--,--.--,22.2341815,68.9617778,42QVK 96061 58748,100.0,100.0,319.8,1,0,--.--,--.--,,--.--,--.--,--.--,0,0,--.--,--.--,0,1.2,0.2,0.1,-0.0,-0.0,0.1,--.--,--.--,--.--,--.--,--.--,--.--,--.--,--.--,--.--,--.--,--.--,--.--,62.62,21.07,--.--,0,0,0.0,0.1,0.0,0,0,0,--.--,--.--,--.--
2023-01-16 12:28:12.982,2.3,6.6,271,0.0,0.0,0.0,0.1,0.0,0.000,0.1,-0.0,0.0,0.010,0.012,0.000,0.0,00:00:38,0.0,0,--.--,0,0.0,50,0000:00:00,50,0,50,50,50,0,0,3.72,0,0,0,15.44,0.84,57,--.--,99,--.--,--:--:--,1,12.97,12:28:12,16/01/23,--.--,--.--,--.--,--.--,--.--,--.--,--.--,--.--,--.--,3.72,--.--,7.00,0,0.000,0.000,0.000,0.000,0.000,0.000,0.000,0.000,0.000,0.000,0.000,0.000,false,false,false,false,false,false,false,false,false,false,false,false,--.--,--.--,--.--,--.--,--.--,--.--,--.--,--.--,22.2341815,68.9617778,42QVK 96061 58748,100.0,100.0,319.8,1,0,--.--,--.--,,--.--,--.--,--.--,0,0,--.--,--.--,0,1.2,0.2,0.0,-0.1,0.0,-0.1,--.--,--.--,--.--,--.--,--.--,--.--,--.--,--.--,--.--,--.--,--.--,--.--,62.62,21.07,--.--,0,0,0.1,0.0,0.1,0,0,0,--.--,--.--,--.--
2023-01-16 12:28:13.982,3.6,2.6,272,0.0,0.0,0.0,0.2,0.0,0.000,0.0,-0.0,0.0,0.010,-0.050,0.000,0.0,00:00:39,0.0,0,--.--,0,0.0,50,0000:00:00,50,0,50,50,50,0,0,3.59,0,0,0,15.44,0.88,58,--.--,99,--.--,--:--:--,1,13.59,12:28:13,16/01/23,--.--,--.--,--.--,--.--,--.--,--.--,--.--,--.--,--.--,3.59,--.--,7.00,0,0.000,0.000,0.000,0.000,0.000,0.000,0.000,0.000,0.000,0.000,0.000,0.000,false,false,false,false,false,false,false,false,false,false,false,false,--.--,--.--,--.--,--.--,--.--,--.--,--.--,--.--,22.2341815,68.9617778,42QVK 96061 58748,100.0,100.0,319.8,1,0,--.--,--.--,,--.--,--.--,--.--,0,0,--.--,--.--,0,1.1,0.1,0.1,-0.1,-0.1,0.0,--.--,--.--,--.--,--.--,--.--,--.--,--.--,--.--,--.--,--.--,--.--,--.--,62.62,21.08,--.--,0,0,0.1,0.0,0.1,0,0,0,--.--,--.--,--.--
2023-01-16 12:28:14.982,3.9,7.0,272,0.0,0.0,0.0,0.1,0.0,0.000,0.1,-0.0,0.0,0.010,0.046,0.000,0.0,00:00:40,0.0,0,--.--,0,0.0,50,0000:00:00,50,0,50,50,50,0,0,3.49,0,0,0,15.44,0.91,58,--.--,99,--.--,--:--:--,1,14.05,12:28:14,16/01/23,--.--,--.--,--.--,--.--,--.--,--.--,--.--,--.--,--.--,3.49,--.--,7.00,0,0.000,0.000,0.000,0.000,0.000,0.000,0.000,0.000,0.000,0.000,0.000,0.000,false,false,false,false,false,false,false,false,false,false,false,false,--.--,--.--,--.--,--.--,--.--,--.--,--.--,--.--,22.2341815,68.9617778,42QVK 96061 58748,100.0,100.0,319.8,1,0,--.--,--.--,,--.--,--.--,--.--,0,0,--.--,--.--,0,0.9,0.0,-0.0,-0.1,-0.0,-0.1,--.--,--.--,--.--,--.--,--.--,--.--,--.--,--.--,--.--,--.--,--.--,--.--,62.62,21.08,--.--,0,0,0.0,0.0,0.0,0,0,0,--.--,--.--,--.--
2023-01-16 12:28:15.982,5.0,7.2,272,0.0,0.0,0.0,0.1,0.0,0.000,0.1,-0.0,0.0,0.010,0.107,0.000,0.0,00:00:41,0.0,0,--.--,0,0.0,50,0000:00:00,50,0,50,50,50,0,0,3.53,0,0,0,15.44,0.85,58,--.--,99,--.--,--:--:--,1,13.12,12:28:15,16/01/23,--.--,--.--,--.--,--.--,--.--,--.--,--.--,--.--,--.--,3.53,--.--,7.00,0,0.000,0.000,0.000,0.000,0.000,0.000,0.000,0.000,0.000,0.000,0.000,0.000,false,false,false,false,false,false,false,false,false,false,false,false,--.--,--.--,--.--,--.--,--.--,--.--,--.--,--.--,22.2341815,68.9617778,42QVK 96061 58748,100.0,100.0,319.8,1,0,--.--,--.--,,--.--,--.--,--.--,0,0,--.--,--.--,0,0.9,0.0,-0.1,0.0,0.1,-0.1,--.--,--.--,--.--,--.--,--.--,--.--,--.--,--.--,--.--,--.--,--.--,--.--,62.62,21.08,--.--,0,0,0.0,0.0,0.0,0,0,0,--.--,--.--,--.--
2023-01-16 12:28:16.983,4.1,3.9,271,0.0,0.0,0.0,0.2,0.0,0.000,-0.1,-0.0,0.0,0.010,0.004,0.000,0.0,00:00:42,0.0,0,--.--,0,0.0,50,0000:00:00,50,0,50,50,50,0,0,3.65,0,0,0,15.44,0.85,58,--.--,99,--.--,--:--:--,1,13.12,12:28:16,16/01/23,--.--,--.--,--.--,--.--,--.--,--.--,--.--,--.--,--.--,3.65,--.--,7.00,0,0.000,0.000,0.000,0.000,0.000,0.000,0.000,0.000,0.000,0.000,0.000,0.000,false,false,false,false,false,false,false,false,false,false,false,false,--.--,--.--,--.--,--.--,--.--,--.--,--.--,--.--,22.2341815,68.9617778,42QVK 96061 58748,100.0,100.0,319.8,1,0,--.--,--.--,,--.--,--.--,--.--,0,0,--.--,--.--,0,1.0,0.1,0.0,0.1,0.1,0.1,--.--,--.--,--.--,--.--,--.--,--.--,--.--,--.--,--.--,--.--,--.--,--.--,62.63,21.07,--.--,0,0,0.0,0.0,0.0,0,0,0,--.--,--.--,--.--
2023-01-16 12:28:17.982,2.8,2.8,270,0.0,0.0,0.0,0.2,0.0,0.000,0.0,-0.0,0.0,0.010,-0.062,0.000,0.0,00:00:43,0.0,0,--.--,0,0.0,50,0000:00:00,50,0,50,50,50,0,0,3.81,0,0,0,15.44,0.90,59,--.--,99,--.--,--:--:--,1,13.90,12:28:17,16/01/23,--.--,--.--,--.--,--.--,--.--,--.--,--.--,--.--,--.--,3.81,--.--,7.00,0,0.000,0.000,0.000,0.000,0.000,0.000,0.000,0.000,0.000,0.000,0.000,0.000,false,false,false,false,false,false,false,false,false,false,false,false,--.--,--.--,--.--,--.--,--.--,--.--,--.--,--.--,22.2341815,68.9617778,42QVK 96061 58748,100.0,100.0,319.8,1,0,--.--,--.--,,--.--,--.--,--.--,0,0,--.--,--.--,0,1.1,0.2,0.1,0.2,0.0,0.0,--.--,--.--,--.--,--.--,--.--,--.--,--.--,--.--,--.--,--.--,--.--,--.--,62.62,21.08,--.--,0,0,0.0,0.1,0.0,0,0,0,--.--,--.--,--.--
2023-01-16 12:28:18.982,2.8,3.4,269,0.0,0.0,0.0,0.1,0.0,0.000,-0.3,-0.0,0.0,0.010,-0.088,0.000,0.0,00:00:44,0.0,0,--.--,0,0.0,50,0000:00:00,50,0,50,50,50,0,0,3.88,0,0,0,15.44,0.89,59,--.--,99,--.--,--:--:--,1,13.74,12:28:18,16/01/23,--.--,--.--,--.--,--.--,--.--,--.--,--.--,--.--,--.--,3.88,--.--,7.00,0,0.000,0.000,0.000,0.000,0.000,0.000,0.000,0.000,0.000,0.000,0.000,0.000,false,false,false,false,false,false,false,false,false,false,false,false,--.--,--.--,--.--,--.--,--.--,--.--,--.--,--.--,22.2341815,68.9617778,42QVK 96061 58748,100.0,100.0,319.8,1,0,--.--,--.--,,--.--,--.--,--.--,0,0,--.--,--.--,0,1.3,0.3,0.1,0.1,0.1,0.3,--.--,--.--,--.--,--.--,--.--,--.--,--.--,--.--,--.--,--.--,--.--,--.--,62.63,21.08,--.--,0,0,0.0,0.1,0.0,0,0,0,--.--,--.--,--.--
2023-01-16 12:28:19.982,2.1,3.5,269,0.0,0.0,0.0,0.1,0.0,0.000,-0.0,0.0,0.0,0.010,-0.161,0.000,0.0,00:00:45,0.0,0,--.--,0,0.0,50,0000:00:00,50,0,50,50,50,0,0,0.00,0,0,0,15.44,0.83,59,--.--,99,--.--,--:--:--,1,12.82,12:28:19,16/01/23,--.--,--.--,--.--,--.--,--.--,--.--,--.--,--.--,--.--,0.00,--.--,7.00,0,0.000,0.000,0.000,0.000,0.000,0.000,0.000,0.000,0.000,0.000,0.000,0.000,false,false,false,false,false,false,false,false,false,false,false,false,--.--,--.--,--.--,--.--,--.--,--.--,--.--,--.--,22.2341815,68.9617778,42QVK 96061 58748,100.0,100.0,319.8,1,0,--.--,--.--,,--.--,--.--,--.--,0,0,--.--,--.--,0,1.3,0.3,0.2,-0.0,-0.1,-0.0,--.--,--.--,--.--,--.--,--.--,--.--,--.--,--.--,--.--,--.--,--.--,--.--,62.63,21.08,--.--,0,0,0.1,0.0,0.0,0,0,0,--.--,--.--,--.--
2023-01-16 12:28:20.983,4.0,6.7,268,0.0,0.0,0.0,0.1,0.0,0.000,0.1,-0.0,0.0,0.010,0.099,0.000,0.0,00:00:46,0.0,0,--.--,0,0.0,50,0000:00:00,50,0,50,50,50,0,0,3.78,0,0,0,15.44,0.86,59,--.--,99,--.--,--:--:--,1,13.28,12:28:20,16/01/23,--.--,--.--,--.--,--.--,--.--,--.--,--.--,--.--,--.--,3.78,--.--,7.00,0,0.000,0.000,0.000,0.000,0.000,0.000,0.000,0.000,0.000,0.000,0.000,0.000,false,false,false,false,false,false,false,false,false,false,false,false,--.--,--.--,--.--,--.--,--.--,--.--,--.--,--.--,22.2341815,68.9617778,42QVK 96061 58748,100.0,100.0,319.8,1,0,--.--,--.--,,--.--,--.--,--.--,0,0,--.--,--.--,0,1.2,0.3,-0.1,-0.1,0.1,-0.1,--.--,--.--,--.--,--.--,--.--,--.--,--.--,--.--,--.--,--.--,--.--,--.--,62.62,21.08,--.--,0,0,0.0,0.0,0.0,0,0,0,--.--,--.--,--.--
2023-01-16 12:28:21.982,3.4,3.8,267,0.0,0.0,0.0,0.1,0.0,0.000,0.1,-0.0,0.0,0.010,0.095,0.000,0.0,00:00:47,0.0,0,--.--,0,0.0,50,0000:00:00,50,0,50,50,50,0,0,3.70,0,0,0,15.44,0.88,60,--.--,99,--.--,--:--:--,1,13.59,12:28:21,16/01/23,--.--,--.--,--.--,--.--,--.--,--.--,--.--,--.--,--.--,3.70,--.--,7.00,0,0.000,0.000,0.000,0.000,0.000,0.000,0.000,0.000,0.000,0.000,0.000,0.000,false,false,false,false,false,false,false,false,false,false,false,false,--.--,--.--,--.--,--.--,--.--,--.--,--.--,--.--,22.2341815,68.9617778,42QVK 96061 58748,100.0,100.0,319.8,1,0,--.--,--.--,,--.--,--.--,--.--,0,0,--.--,--.--,0,1.1,0.2,-0.1,-0.1,0.1,-0.1,--.--,--.--,--.--,--.--,--.--,--.--,--.--,--.--,--.--,--.--,--.--,--.--,62.63,21.08,--.--,0,0,0.0,0.1,0.0,0,0,0,--.--,--.--,--.--
2023-01-16 12:28:22.982,2.5,2.6,265,0.0,0.0,0.0,0.1,0.0,0.000,-0.0,-0.0,0.0,0.010,-0.023,0.000,0.0,00:00:48,0.0,0,--.--,0,0.0,50,0000:00:00,50,0,50,50,50,0,0,3.70,0,0,0,15.44,0.88,60,--.--,99,--.--,--:--:--,1,13.59,12:28:22,16/01/23,--.--,--.--,--.--,--.--,--.--,--.--,--.--,--.--,--.--,3.70,--.--,7.00,0,0.000,0.000,0.000,0.000,0.000,0.000,0.000,0.000,0.000,0.000,0.000,0.000,false,false,false,false,false,false,false,false,false,false,false,false,--.--,--.--,--.--,--.--,--.--,--.--,--.--,--.--,22.2341815,68.9617778,42QVK 96061 58748,100.0,100.0,319.8,1,0,--.--,--.--,,--.--,--.--,--.--,0,0,--.--,--.--,0,1.1,0.3,0.0,0.0,0.1,0.0,--.--,--.--,--.--,--.--,--.--,--.--,--.--,--.--,--.--,--.--,--.--,--.--,62.63,21.08,--.--,0,0,0.0,0.0,0.0,0,0,0,--.--,--.--,--.--
2023-01-16 12:28:23.982,3.9,1.2,261,0.0,0.0,0.0,0.1,0.0,0.000,-0.1,0.0,0.0,0.010,-0.063,0.000,0.0,00:00:49,0.0,0,--.--,0,0.0,50,0000:00:00,50,0,50,50,50,0,0,3.70,0,0,0,15.45,0.86,60,--.--,99,--.--,--:--:--,1,13.28,12:28:23,16/01/23,--.--,--.--,--.--,--.--,--.--,--.--,--.--,--.--,--.--,3.70,--.--,7.00,0,0.000,0.000,0.000,0.000,0.000,0.000,0.000,0.000,0.000,0.000,0.000,0.000,false,false,false,false,false,false,false,false,false,false,false,false,--.--,--.--,--.--,--.--,--.--,--.--,--.--,--.--,22.2341815,68.9617778,42QVK 96061 58748,100.0,100.0,319.8,1,0,--.--,--.--,,--.--,--.--,--.--,0,0,--.--,--.--,0,1.1,0.3,0.1,-0.0,-0.1,0.1,--.--,--.--,--.--,--.--,--.--,--.--,--.--,--.--,--.--,--.--,--.--,--.--,62.63,21.08,--.--,0,0,0.0,0.1,0.1,0,0,0,--.--,--.--,--.--
2023-01-16 12:28:24.982,2.8,6.9,257,0.0,0.0,0.0,0.0,0.0,0.000,-0.1,-0.0,0.0,0.010,-0.010,0.000,0.0,00:00:50,0.0,0,--.--,0,0.0,50,0000:00:00,50,0,50,50,50,0,0,3.74,0,0,0,15.44,0.86,60,--.--,99,--.--,--:--:--,1,13.28,12:28:24,16/01/23,--.--,--.--,--.--,--.--,--.--,--.--,--.--,--.--,--.--,3.74,--.--,7.00,0,0.000,0.000,0.000,0.000,0.000,0.000,0.000,0.000,0.000,0.000,0.000,0.000,false,false,false,false,false,false,false,false,false,false,false,false,--.--,--.--,--.--,--.--,--.--,--.--,--.--,--.--,22.2341815,68.9617778,42QVK 96061 58748,100.0,100.0,319.8,1,0,--.--,--.--,,--.--,--.--,--.--,0,0,--.--,--.--,0,1.1,0.3,0.0,0.0,0.1,0.1,--.--,--.--,--.--,--.--,--.--,--.--,--.--,--.--,--.--,--.--,--.--,--.--,62.64,21.08,--.--,0,0,0.1,0.0,0.0,0,0,0,--.--,--.--,--.--
2023-01-16 12:28:25.982,2.1,2.8,254,0.0,0.0,0.0,0.1,0.0,0.000,0.1,0.0,0.0,0.010,-0.029,0.000,0.0,00:00:51,0.0,0,--.--,0,0.0,50,0000:00:00,50,0,50,50,50,0,0,3.68,0,0,0,15.44,0.92,61,--.--,99,--.--,--:--:--,1,14.21,12:28:25,16/01/23,--.--,--.--,--.--,--.--,--.--,--.--,--.--,--.--,--.--,3.68,--.--,7.00,0,0.000,0.000,0.000,0.000,0.000,0.000,0.000,0.000,0.000,0.000,0.000,0.000,false,false,false,false,false,false,false,false,false,false,false,false,--.--,--.--,--.--,--.--,--.--,--.--,--.--,--.--,22.2341815,68.9617778,42QVK 96061 58748,100.0,100.0,319.8,1,0,--.--,--.--,,--.--,--.--,--.--,0,0,--.--,--.--,0,1.0,0.2,0.0,-0.1,-0.1,-0.2,--.--,--.--,--.--,--.--,--.--,--.--,--.--,--.--,--.--,--.--,--.--,--.--,62.63,21.08,--.--,0,0,0.0,0.1,0.0,0,0,0,--.--,--.--,--.--
2023-01-16 12:28:26.982,5.2,-1.0,253,0.0,0.0,0.0,0.5,0.0,0.000,-0.2,0.0,0.0,0.010,0.051,0.000,0.0,00:00:52,0.0,0,--.--,0,0.0,50,0000:00:00,50,0,50,50,50,0,0,3.74,0,0,0,15.09,16.76,63,--.--,99,--.--,--:--:--,1,252.89,12:28:26,16/01/23,--.--,--.--,--.--,--.--,--.--,--.--,--.--,--.--,--.--,3.74,--.--,7.00,0,0.000,0.000,0.000,0.000,0.000,0.000,0.000,0.000,0.000,0.000,0.000,0.000,false,false,false,false,false,false,false,false,false,false,false,false,--.--,--.--,--.--,--.--,--.--,--.--,--.--,--.--,22.2341815,68.9617778,42QVK 96061 58748,100.0,100.0,319.8,1,0,--.--,--.--,,--.--,--.--,--.--,0,0,--.--,--.--,0,1.0,-0.0,-0.1,-0.0,-0.5,0.1,--.--,--.--,--.--,--.--,--.--,--.--,--.--,--.--,--.--,--.--,--.--,--.--,62.64,21.08,--.--,0,0,0.4,1.3,0.5,0,0,0,--.--,--.--,--.--
2023-01-16 12:28:27.982,1.2,4.2,260,0.0,0.0,0.0,0.1,0.0,0.000,0.2,0.0,0.0,0.010,0.031,0.000,0.0,00:00:53,0.0,0,--.--,0,0.0,50,0000:00:00,50,0,50,50,50,0,0,3.72,0,0,0,15.43,0.83,65,--.--,99,--.--,--:--:--,1,12.81,12:28:27,16/01/23,--.--,--.--,--.--,--.--,--.--,--.--,--.--,--.--,--.--,3.72,--.--,7.00,0,0.000,0.000,0.000,0.000,0.000,0.000,0.000,0.000,0.000,0.000,0.000,0.000,false,false,false,false,false,false,false,false,false,false,false,false,--.--,--.--,--.--,--.--,--.--,--.--,--.--,--.--,22.2341815,68.9617778,42QVK 96061 58748,100.0,100.0,319.8,1,0,--.--,--.--,,--.--,--.--,--.--,0,0,--.--,--.--,0,1.0,-0.2,-0.0,0.1,-0.1,-0.1,--.--,--.--,--.--,--.--,--.--,--.--,--.--,--.--,--.--,--.--,--.--,--.--,62.64,21.08,--.--,0,0,0.1,0.1,0.1,0,0,0,--.--,--.--,--.--
2023-01-16 12:28:28.982,3.1,5.3,266,0.0,0.0,0.0,0.1,0.0,0.000,-0.1,-0.0,0.0,0.010,0.057,0.000,0.0,00:00:54,0.0,0,--.--,0,0.0,50,0000:00:00,50,0,50,50,50,0,0,3.93,0,0,0,15.43,0.85,65,--.--,99,--.--,--:--:--,1,13.12,12:28:28,16/01/23,--.--,--.--,--.--,--.--,--.--,--.--,--.--,--.--,--.--,3.93,--.--,7.00,0,0.000,0.000,0.000,0.000,0.000,0.000,0.000,0.000,0.000,0.000,0.000,0.000,false,false,false,false,false,false,false,false,false,false,false,false,--.--,--.--,--.--,--.--,--.--,--.--,--.--,--.--,22.2341815,68.9617778,42QVK 96061 58748,100.0,100.0,319.8,1,0,--.--,--.--,,--.--,--.--,--.--,0,0,--.--,--.--,0,1.1,-0.4,-0.0,0.1,0.0,0.2,--.--,--.--,--.--,--.--,--.--,--.--,--.--,--.--,--.--,--.--,--.--,--.--,62.64,21.08,--.--,0,0,0.0,0.1,0.1,0,0,0,--.--,--.--,--.--
2023-01-16 12:28:29.983,1.2,5.9,269,0.0,0.0,0.0,0.0,0.0,0.000,0.0,-0.0,0.0,0.010,-0.102,0.000,0.0,00:00:55,0.0,0,--.--,0,0.0,50,0000:00:00,50,0,50,50,50,0,0,0.00,0,0,0,15.44,0.85,65,--.--,99,--.--,--:--:--,1,13.12,12:28:29,16/01/23,--.--,--.--,--.--,--.--,--.--,--.--,--.--,--.--,--.--,0.00,--.--,7.00,0,0.000,0.000,0.000,0.000,0.000,0.000,0.000,0.000,0.000,0.000,0.000,0.000,false,false,false,false,false,false,false,false,false,false,false,false,--.--,--.--,--.--,--.--,--.--,--.--,--.--,--.--,22.2341815,68.9617778,42QVK 96061 58748,100.0,100.0,319.8,1,0,--.--,--.--,,--.--,--.--,--.--,0,0,--.--,--.--,0,1.2,-0.4,0.1,-0.0,-0.0,-0.0,--.--,--.--,--.--,--.--,--.--,--.--,--.--,--.--,--.--,--.--,--.--,--.--,62.64,21.07,--.--,0,0,0.1,0.0,0.1,0,0,0,--.--,--.--,--.--
2023-01-16 12:28:30.982,2.6,5.5,268,0.0,0.0,0.0,0.1,0.0,0.000,-0.2,-0.0,0.0,0.010,-0.104,0.000,0.0,00:00:56,0.0,0,--.--,0,0.0,50,0000:00:00,51,0,50,50,50,0,0,3.91,0,0,0,15.44,0.88,65,--.--,99,--.--,--:--:--,1,13.59,12:28:30,16/01/23,--.--,--.--,--.--,--.--,--.--,--.--,--.--,--.--,--.--,3.91,--.--,7.00,0,0.000,0.000,0.000,0.000,0.000,0.000,0.000,0.000,0.000,0.000,0.000,0.000,false,false,false,false,false,false,false,false,false,false,false,false,--.--,--.--,--.--,--.--,--.--,--.--,--.--,--.--,22.2341815,68.9617778,42QVK 96061 58748,100.0,100.0,319.8,1,0,--.--,--.--,,--.--,--.--,--.--,0,0,--.--,--.--,0,1.2,-0.4,0.1,-0.0,-0.0,0.2,--.--,--.--,--.--,--.--,--.--,--.--,--.--,--.--,--.--,--.--,--.--,--.--,62.64,21.07,--.--,0,0,0.0,0.0,0.0,0,0,0,--.--,--.--,--.--
2023-01-16 12:28:31.982,-0.3,6.9,263,0.0,0.0,0.0,0.3,0.0,0.000,0.2,0.0,0.0,0.010,-0.016,0.000,0.0,00:00:57,0.0,0,--.--,0,0.0,50,0000:00:00,51,0,50,50,50,0,0,3.68,0,0,0,15.08,17.27,67,--.--,99,--.--,--:--:--,1,260.40,12:28:31,16/01/23,--.--,--.--,--.--,--.--,--.--,--.--,--.--,--.--,--.--,3.68,--.--,7.00,0,0.000,0.000,0.000,0.000,0.000,0.000,0.000,0.000,0.000,0.000,0.000,0.000,false,false,false,false,false,false,false,false,false,false,false,false,--.--,--.--,--.--,--.--,--.--,--.--,--.--,--.--,22.2341815,68.9617778,42QVK 96061 58748,100.0,100.0,319.8,1,0,--.--,--.--,,--.--,--.--,--.--,0,0,--.--,--.--,0,1.0,-0.5,0.0,-0.2,-0.3,-0.2,--.--,--.--,--.--,--.--,--.--,--.--,--.--,--.--,--.--,--.--,--.--,--.--,62.64,21.08,--.--,0,0,0.3,0.8,0.4,0,0,0,--.--,--.--,--.--
2023-01-16 12:28:32.982,0.8,0.4,262,0.0,0.0,0.0,0.2,0.0,0.000,0.1,0.0,0.0,0.010,-0.017,0.000,0.0,00:00:58,0.0,0,--.--,0,0.0,50,0000:00:00,51,0,50,50,50,0,0,3.64,0,0,0,15.32,5.68,71,--.--,99,--.--,--:--:--,1,87.02,12:28:32,16/01/23,--.--,--.--,--.--,--.--,--.--,--.--,--.--,--.--,--.--,3.64,--.--,7.00,0,0.000,0.000,0.000,0.000,0.000,0.000,0.000,0.000,0.000,0.000,0.000,0.000,false,false,false,false,false,false,false,false,false,false,false,false,--.--,--.--,--.--,--.--,--.--,--.--,--.--,--.--,22.2341815,68.9617778,42QVK 96061 58748,100.0,100.0,319.8,1,0,--.--,--.--,,--.--,--.--,--.--,0,0,--.--,--.--,0,0.9,-0.8,0.0,-0.1,-0.2,-0.0,--.--,--.--,--.--,--.--,--.--,--.--,--.--,--.--,--.--,--.--,--.--,--.--,62.65,21.08,--.--,0,0,0.5,1.0,0.5,0,0,0,--.--,--.--,--.--
2023-01-16 12:28:33.982,-6.3,9.5,258,0.0,0.0,0.0,0.3,0.0,0.000,-0.0,-0.1,0.0,0.010,0.056,0.000,0.0,00:00:59,0.0,0,--.--,0,0.0,50,0000:00:00,51,0,50,50,50,0,0,3.54,0,0,0,15.05,17.71,73,--.--,99,--.--,--:--:--,1,266.50,12:28:33,16/01/23,--.--,--.--,--.--,--.--,--.--,--.--,--.--,--.--,--.--,3.54,--.--,7.00,0,0.000,0.000,0.000,0.000,0.000,0.000,0.000,0.000,0.000,0.000,0.000,0.000,false,false,false,false,false,false,false,false,false,false,false,false,--.--,--.--,--.--,--.--,--.--,--.--,--.--,--.--,22.2341815,68.9617778,42QVK 96061 58748,100.0,100.0,319.8,1,0,--.--,--.--,,--.--,--.--,--.--,0,0,--.--,--.--,0,0.8,-0.9,-0.1,-0.0,0.4,0.0,--.--,--.--,--.--,--.--,--.--,--.--,--.--,--.--,--.--,--.--,--.--,--.--,62.64,21.07,--.--,0,0,0.6,0.6,0.5,0,0,0,--.--,--.--,--.--
2023-01-16 12:28:34.982,-15.5,21.2,241,0.0,0.0,0.0,0.3,0.0,0.000,-0.1,-0.2,0.0,0.010,-0.193,0.000,0.0,00:01:00,0.0,0,--.--,0,0.0,50,0000:00:00,51,0,50,50,50,0,0,3.81,0,0,0,15.23,8.24,77,--.--,99,--.--,--:--:--,1,125.49,12:28:34,16/01/23,--.--,--.--,--.--,--.--,--.--,--.--,--.--,--.--,--.--,3.81,--.--,7.00,0,0.000,0.000,0.000,0.000,0.000,0.000,0.000,0.000,0.000,0.000,0.000,0.000,false,false,false,false,false,false,false,false,false,false,false,false,--.--,--.--,--.--,--.--,--.--,--.--,--.--,--.--,22.2341815,68.9617778,42QVK 96061 58748,100.0,100.0,319.8,1,0,--.--,--.--,,--.--,--.--,--.--,0,0,--.--,--.--,0,1.0,-0.7,0.2,0.3,-0.1,0.1,--.--,--.--,--.--,--.--,--.--,--.--,--.--,--.--,--.--,--.--,--.--,--.--,62.64,21.07,--.--,0,0,0.8,1.4,0.7,0,0,0,--.--,--.--,--.--
2023-01-16 12:28:35.982,-16.9,14.5,253,0.0,0.0,0.0,0.0,0.0,0.000,-0.2,-0.3,0.0,0.010,-0.336,0.000,0.0,00:01:01,0.0,0,--.--,0,0.0,50,0000:00:00,51,0,50,50,50,0,0,3.86,0,0,0,15.04,16.92,82,--.--,99,--.--,--:--:--,1,254.54,12:28:35,16/01/23,--.--,--.--,--.--,--.--,--.--,--.--,--.--,--.--,--.--,3.86,--.--,7.00,0,0.000,0.000,0.000,0.000,0.000,0.000,0.000,0.000,0.000,0.000,0.000,0.000,false,false,false,false,false,false,false,false,false,false,false,false,--.--,--.--,--.--,--.--,--.--,--.--,--.--,--.--,22.2341815,68.9617778,42QVK 96061 58748,100.0,100.0,319.8,1,0,--.--,--.--,,--.--,--.--,--.--,0,0,--.--,--.--,0,1.0,-0.6,0.3,-0.1,0.1,0.2,--.--,--.--,--.--,--.--,--.--,--.--,--.--,--.--,--.--,--.--,--.--,--.--,62.64,21.07,--.--,0,0,0.5,0.8,0.5,0,0,0,--.--,--.--,--.--
2023-01-16 12:28:36.982,-5.1,4.3,260,0.0,0.0,0.0,0.2,0.0,0.000,-0.1,-0.3,0.0,0.010,-0.380,0.000,0.0,00:01:02,0.0,0,--.--,0,0.0,50,0000:00:00,51,0,50,50,50,0,0,3.49,0,0,0,15.40,0.87,82,--.--,99,--.--,--:--:--,1,13.40,12:28:36,16/01/23,--.--,--.--,--.--,--.--,--.--,--.--,--.--,--.--,--.--,3.49,--.--,7.00,0,0.000,0.000,0.000,0.000,0.000,0.000,0.000,0.000,0.000,0.000,0.000,0.000,false,false,false,false,false,false,false,false,false,false,false,false,--.--,--.--,--.--,--.--,--.--,--.--,--.--,--.--,22.2341815,68.9617778,42QVK 96061 58748,100.0,100.0,319.8,1,0,--.--,--.--,,--.--,--.--,--.--,0,0,--.--,--.--,0,1.2,-0.4,0.4,0.2,-0.0,0.0,--.--,--.--,--.--,--.--,--.--,--.--,--.--,--.--,--.--,--.--,--.--,--.--,62.65,21.08,--.--,0,0,0.0,0.2,0.1,0,0,0,--.--,--.--,--.--
2023-01-16 12:28:37.982,7.5,9.8,269,0.0,0.0,0.0,0.0,0.0,0.000,0.1,-0.2,0.0,0.010,-0.246,0.000,0.0,00:01:03,0.0,0,--.--,0,0.0,50,0000:00:00,47,0,50,50,50,0,0,3.60,0,0,0,15.41,0.85,82,--.--,99,--.--,--:--:--,1,13.10,12:28:37,16/01/23,--.--,--.--,--.--,--.--,--.--,--.--,--.--,--.--,--.--,3.60,--.--,7.00,0,0.000,0.000,0.000,0.000,0.000,0.000,0.000,0.000,0.000,0.000,0.000,0.000,false,false,false,false,false,false,false,false,false,false,false,false,--.--,--.--,--.--,--.--,--.--,--.--,--.--,--.--,22.2341815,68.9617778,42QVK 96061 58748,100.0,100.0,319.8,1,0,--.--,--.--,,--.--,--.--,--.--,0,0,--.--,--.--,0,1.1,-0.4,0.3,-0.0,0.0,-0.1,--.--,--.--,--.--,--.--,--.--,--.--,--.--,--.--,--.--,--.--,--.--,--.--,62.65,21.06,--.--,0,0,0.0,0.0,0.0,0,0,0,--.--,--.--,--.--
2023-01-16 12:28:38.982,4.6,8.2,274,0.0,0.0,0.0,0.0,0.0,0.000,0.1,-0.1,0.0,0.010,-0.122,0.000,0.0,00:01:04,0.0,0,--.--,0,0.0,50,0000:00:00,28,0,50,50,50,0,0,3.73,0,0,0,15.42,0.84,83,--.--,99,--.--,--:--:--,1,12.95,12:28:38,16/01/23,--.--,--.--,--.--,--.--,--.--,--.--,--.--,--.--,--.--,3.73,--.--,7.00,0,0.000,0.000,0.000,0.000,0.000,0.000,0.000,0.000,0.000,0.000,0.000,0.000,false,false,false,false,false,false,false,false,false,false,false,false,--.--,--.--,--.--,--.--,--.--,--.--,--.--,--.--,22.2341815,68.9617778,42QVK 96061 58748,100.0,100.0,319.8,1,0,--.--,--.--,,--.--,--.--,--.--,0,0,--.--,--.--,0,1.1,-0.4,0.1,-0.0,-0.0,-0.1,--.--,--.--,--.--,--.--,--.--,--.--,--.--,--.--,--.--,--.--,--.--,--.--,62.64,21.07,--.--,0,0,0.0,0.0,0.0,0,0,0,--.--,--.--,--.--
2023-01-16 12:28:39.983,3.2,6.8,278,0.0,0.0,0.0,0.1,0.0,0.000,0.2,-0.0,0.0,0.010,-0.019,0.000,0.0,00:01:05,0.0,0,--.--,0,0.0,50,0000:00:00,58,0,50,50,50,0,0,3.73,0,0,0,15.42,0.86,83,--.--,99,--.--,--:--:--,1,13.26,12:28:39,16/01/23,--.--,--.--,--.--,--.--,--.--,--.--,--.--,--.--,--.--,3.73,--.--,7.00,0,0.000,0.000,0.000,0.000,0.000,0.000,0.000,0.000,0.000,0.000,0.000,0.000,false,false,false,false,false,false,false,false,false,false,false,false,--.--,--.--,--.--,--.--,--.--,--.--,--.--,--.--,22.2341815,68.9617778,42QVK 96061 58748,100.0,100.0,319.8,1,0,--.--,--.--,,--.--,--.--,--.--,0,0,--.--,--.--,0,1.2,-0.6,0.0,0.1,-0.1,-0.2,--.--,--.--,--.--,--.--,--.--,--.--,--.--,--.--,--.--,--.--,--.--,--.--,62.65,21.07,--.--,0,0,0.0,0.0,0.0,0,0,0,--.--,--.--,--.--
2023-01-16 12:28:40.983,2.9,-1.5,279,0.0,0.0,0.0,0.1,0.0,0.000,-0.0,0.0,0.0,0.010,0.017,0.000,0.0,00:01:06,0.0,0,--.--,0,0.0,50,0000:00:00,90,0,50,50,50,0,0,3.84,0,0,0,15.42,0.90,83,--.--,99,--.--,--:--:--,1,13.88,12:28:40,16/01/23,--.--,--.--,--.--,--.--,--.--,--.--,--.--,--.--,--.--,3.84,--.--,7.00,0,0.000,0.000,0.000,0.000,0.000,0.000,0.000,0.000,0.000,0.000,0.000,0.000,false,false,false,false,false,false,false,false,false,false,false,false,--.--,--.--,--.--,--.--,--.--,--.--,--.--,--.--,22.2341815,68.9617778,42QVK 96061 58748,100.0,100.0,319.8,1,0,--.--,--.--,,--.--,--.--,--.--,0,0,--.--,--.--,0,1.3,-0.6,-0.0,0.0,0.1,0.0,--.--,--.--,--.--,--.--,--.--,--.--,--.--,--.--,--.--,--.--,--.--,--.--,62.65,21.06,--.--,0,0,0.1,0.0,0.1,0,0,0,--.--,--.--,--.--
2023-01-16 12:28:41.982,2.5,4.1,275,0.0,0.0,0.0,0.0,0.0,0.000,-0.0,-0.0,0.0,0.010,-0.001,0.000,0.0,00:01:07,0.0,0,--.--,0,0.0,50,0000:00:00,100,0,50,50,50,0,0,3.84,0,0,0,15.42,0.87,83,--.--,99,--.--,--:--:--,1,13.42,12:28:41,16/01/23,--.--,--.--,--.--,--.--,--.--,--.--,--.--,--.--,--.--,3.84,--.--,7.00,0,0.000,0.000,0.000,0.000,0.000,0.000,0.000,0.000,0.000,0.000,0.000,0.000,false,false,false,false,false,false,false,false,false,false,false,false,--.--,--.--,--.--,--.--,--.--,--.--,--.--,--.--,22.2341815,68.9617778,42QVK 96061 58748,100.0,100.0,319.8,1,0,--.--,--.--,,--.--,--.--,--.--,0,0,--.--,--.--,0,1.3,-0.6,0.0,-0.0,-0.0,0.1,--.--,--.--,--.--,--.--,--.--,--.--,--.--,--.--,--.--,--.--,--.--,--.--,62.64,21.06,--.--,0,0,0.0,0.1,0.1,0,0,0,--.--,--.--,--.--
2023-01-16 12:28:42.983,1.8,7.9,271,0.0,0.0,0.0,0.1,0.0,0.000,0.0,-0.0,0.0,0.010,0.000,0.000,0.0,00:01:08,0.0,0,--.--,0,0.0,50,0000:00:00,100,0,50,50,50,0,0,3.81,0,0,0,15.42,0.83,84,--.--,99,--.--,--:--:--,1,12.80,12:28:42,16/01/23,--.--,--.--,--.--,--.--,--.--,--.--,--.--,--.--,--.--,3.81,--.--,7.00,0,0.000,0.000,0.000,0.000,0.000,0.000,0.000,0.000,0.000,0.000,0.000,0.000,false,false,false,false,false,false,false,false,false,false,false,false,--.--,--.--,--.--,--.--,--.--,--.--,--.--,--.--,22.2341815,68.9617778,42QVK 96061 58748,100.0,100.0,319.8,1,0,--.--,--.--,,--.--,--.--,--.--,0,0,--.--,--.--,0,1.3,-0.6,0.0,-0.0,0.1,-0.0,--.--,--.--,--.--,--.--,--.--,--.--,--.--,--.--,--.--,--.--,--.--,--.--,62.64,21.07,--.--,0,0,0.0,0.0,0.1,0,0,0,--.--,--.--,--.--
2023-01-16 12:28:43.982,2.3,2.8,268,0.0,0.0,0.0,0.1,0.0,0.000,-0.1,-0.0,0.0,0.010,-0.074,0.000,0.0,00:01:09,0.0,0,--.--,0,0.0,50,0000:00:00,100,0,50,50,50,0,0,3.53,0,0,0,15.43,0.86,84,--.--,99,--.--,--:--:--,1,13.27,12:28:43,16/01/23,--.--,--.--,--.--,--.--,--.--,--.--,--.--,--.--,--.--,3.53,--.--,7.00,0,0.000,0.000,0.000,0.000,0.000,0.000,0.000,0.000,0.000,0.000,0.000,0.000,false,false,false,false,false,false,false,false,false,false,false,false,--.--,--.--,--.--,--.--,--.--,--.--,--.--,--.--,22.2341815,68.9617778,42QVK 96061 58748,100.0,100.0,319.8,1,0,--.--,--.--,,--.--,--.--,--.--,0,0,--.--,--.--,0,1.3,-0.6,0.1,-0.0,-0.1,0.1,--.--,--.--,--.--,--.--,--.--,--.--,--.--,--.--,--.--,--.--,--.--,--.--,62.65,21.06,--.--,0,0,0.1,0.0,0.0,0,0,0,--.--,--.--,--.--
2023-01-16 12:28:44.983,1.9,4.2,266,0.0,0.0,0.0,0.1,0.0,0.000,-0.0,-0.0,0.0,0.010,-0.056,0.000,0.0,00:01:10,0.0,0,--.--,0,0.0,50,0000:00:00,100,0,50,50,50,0,0,3.80,0,0,0,15.42,0.87,84,--.--,99,--.--,--:--:--,1,13.42,12:28:44,16/01/23,--.--,--.--,--.--,--.--,--.--,--.--,--.--,--.--,--.--,3.80,--.--,7.00,0,0.000,0.000,0.000,0.000,0.000,0.000,0.000,0.000,0.000,0.000,0.000,0.000,false,false,false,false,false,false,false,false,false,false,false,false,--.--,--.--,--.--,--.--,--.--,--.--,--.--,--.--,22.2341815,68.9617778,42QVK 96061 58748,100.0,100.0,319.8,1,0,--.--,--.--,,--.--,--.--,--.--,0,0,--.--,--.--,0,1.3,-0.6,0.1,-0.0,-0.1,0.0,--.--,--.--,--.--,--.--,--.--,--.--,--.--,--.--,--.--,--.--,--.--,--.--,62.65,21.07,--.--,0,0,0.0,0.0,0.0,0,0,0,--.--,--.--,--.--
2023-01-16 12:28:45.983,3.5,6.8,266,0.0,0.0,0.0,0.1,0.0,0.000,0.1,0.0,0.0,0.010,0.029,0.000,0.0,00:01:11,0.0,0,--.--,0,0.0,50,0000:00:00,100,0,50,50,50,0,0,3.78,0,0,0,15.43,0.85,84,--.--,99,--.--,--:--:--,1,13.11,12:28:45,16/01/23,--.--,--.--,--.--,--.--,--.--,--.--,--.--,--.--,--.--,3.78,--.--,7.00,0,0.000,0.000,0.000,0.000,0.000,0.000,0.000,0.000,0.000,0.000,0.000,0.000,false,false,false,false,false,false,false,false,false,false,false,false,--.--,--.--,--.--,--.--,--.--,--.--,--.--,--.--,22.2341815,68.9617778,42QVK 96061 58748,100.0,100.0,319.8,1,0,--.--,--.--,,--.--,--.--,--.--,0,0,--.--,--.--,0,1.3,-0.7,-0.0,0.0,-0.0,-0.1,--.--,--.--,--.--,--.--,--.--,--.--,--.--,--.--,--.--,--.--,--.--,--.--,62.64,21.07,--.--,0,0,0.0,0.0,0.0,0,0,0,--.--,--.--,--.--
2023-01-16 12:28:46.982,1.8,5.8,266,0.0,0.0,0.0,0.1,0.0,0.000,-0.1,-0.0,0.0,0.010,-0.001,0.000,0.0,00:01:12,0.0,0,--.--,0,0.0,50,0000:00:00,100,0,50,50,50,0,0,3.85,0,0,0,15.43,0.88,85,--.--,99,--.--,--:--:--,1,13.57,12:28:46,16/01/23,--.--,--.--,--.--,--.--,--.--,--.--,--.--,--.--,--.--,3.85,--.--,7.00,0,0.000,0.000,0.000,0.000,0.000,0.000,0.000,0.000,0.000,0.000,0.000,0.000,false,false,false,false,false,false,false,false,false,false,false,false,--.--,--.--,--.--,--.--,--.--,--.--,--.--,--.--,22.2341815,68.9617778,42QVK 96061 58748,100.0,100.0,319.8,1,0,--.--,--.--,,--.--,--.--,--.--,0,0,--.--,--.--,0,1.3,-0.7,-0.0,0.0,0.0,0.1,--.--,--.--,--.--,--.--,--.--,--.--,--.--,--.--,--.--,--.--,--.--,--.--,62.65,21.07,--.--,0,0,0.0,0.1,0.0,0,0,0,--.--,--.--,--.--
2023-01-16 12:28:47.982,3.2,7.5,267,0.0,0.0,0.0,0.1,0.0,0.000,-0.0,-0.0,0.0,0.010,-0.052,0.000,0.0,00:01:13,0.0,0,--.--,0,0.0,50,0000:00:00,100,0,50,50,50,0,0,3.57,0,0,0,15.43,0.87,85,--.--,99,--.--,--:--:--,1,13.42,12:28:47,16/01/23,--.--,--.--,--.--,--.--,--.--,--.--,--.--,--.--,--.--,3.57,--.--,7.00,0,0.000,0.000,0.000,0.000,0.000,0.000,0.000,0.000,0.000,0.000,0.000,0.000,false,false,false,false,false,false,false,false,false,false,false,false,--.--,--.--,--.--,--.--,--.--,--.--,--.--,--.--,22.2341815,68.9617778,42QVK 96061 58748,100.0,100.0,319.8,1,0,--.--,--.--,,--.--,--.--,--.--,0,0,--.--,--.--,0,1.4,-0.7,0.1,0.0,-0.0,0.0,--.--,--.--,--.--,--.--,--.--,--.--,--.--,--.--,--.--,--.--,--.--,--.--,62.65,21.07,--.--,0,0,0.1,0.0,0.0,0,0,0,--.--,--.--,--.--
